     2.10           OBSERVATION DATA    G (GPS)             RINEX VERSION / TYPE
SiGOGprcs v.1                           (27-APR-03 18:53)   PGM / RUN BY / DATE 
SIMULATED RINEX from  PRECISE ORBITS                        COMMENT             
vbca                                                        MARKER NAME         
elsa mohino         UCM                                     OBSERVER / AGENCY   
X124A123            XX                  ZZZ                 REC # / TYPE / VERS 
234                 YY                                      ANT # / TYPE        
  2319240.7994 -4411743.9232 -3966484.1523                  APPROX POSITION XYZ 
        1.0707        0.0000        0.0000                  ANTENNA: DELTA H/E/N
     1     1                                                WAVELENGTH FACT L1/2
     5    C1    P1    P2    L1    L2                        # / TYPES OF OBSERV 
   900.000                                                  INTERVAL            
  2003     5    13     0     0    0.0000000     GPS         TIME OF FIRST OBS   
                                                            END OF HEADER       
 03  5 13  0  0  0.0000000  0  9  6 10 15 16 17 18 21 25 30         
  20969651.072    20969651.072    20969651.072   110196260.147    85867215.699
  23919454.590    23919454.590    23919454.590   125697582.259    97946167.994
  21689977.004    21689977.004    21689977.004   113981598.469    88816829.975
  22491365.595    22491365.595    22491365.595   118192923.938    92098382.290
  19915329.042    19915329.042    19915329.042   104655760.484    81549943.234
  23533790.311    23533790.311    23533790.311   123670902.794    96366937.242
  20159928.125    20159928.125    20159928.125   105941137.341    82551535.590
  23556574.866    23556574.866    23556574.866   123790636.439    96460236.186
  22524243.999    22524243.999    22524243.999   118365701.117    92233013.858
 03  5 13  0 15  0.0000000  0 11  2  6 10 15 16 17 18 21 23 25 30   
  23520000.392    23520000.392    23520000.392   123598436.281    96310469.829
  21230993.570    21230993.570    21230993.570   111569624.243    86937369.540
  24315997.222    24315997.222    24315997.222   127781427.855    99569943.783
  21326020.617    21326020.617    21326020.617   112068994.746    87326489.412
  22032325.853    22032325.853    22032325.853   115780653.813    90218691.283
  20071566.221    20071566.221    20071566.221   105476792.401    82189708.365
  22931642.461    22931642.461    22931642.461   120506594.485    93901242.456
  20164963.107    20164963.107    20164963.107   105967596.350    82572153.000
  24547018.539    24547018.539    24547018.539   128995453.070   100515937.457
  24012080.841    24012080.841    24012080.841   126184336.494    98325457.008
  23081329.542    23081329.542    23081329.542   121293205.405    94514186.030
 03  5 13  0 30  0.0000000  0 10  2  6 15 16 17 18 21 23 25 30      
  22970298.752    22970298.752    22970298.752   120709734.665    94059533.506
  21534034.216    21534034.216    21534034.216   113162113.586    88178270.327
  21028513.295    21028513.295    21028513.295   110505583.217    86108246.662
  21637987.689    21637987.689    21637987.689   113708392.774    88603942.421
  20310176.405    20310176.405    20310176.405   106730697.381    83166777.180
  22362080.992    22362080.992    22362080.992   117513528.764    91568983.452
  20247914.643    20247914.643    20247914.643   106403509.614    82911825.673
  23862865.351    23862865.351    23862865.351   125400203.801    97714444.520
  24494518.720    24494518.720    24494518.720   128719564.659   100300959.475
  23676420.577    23676420.577    23676420.577   124420429.901    96950984.338
 03  5 13  0 45  0.0000000  0  9  2  6 15 16 17 18 21 23 30         
  22486116.132    22486116.132    22486116.132   118165337.824    92076886.616
  21877979.102    21877979.102    21877979.102   114969556.162    89586667.139
  20798607.125    20798607.125    20798607.125   109297418.139    85166819.329
  21320839.031    21320839.031    21320839.031   112041765.328    87305271.684
  20619764.252    20619764.252    20619764.252   108357592.498    84434487.661
  21840877.231    21840877.231    21840877.231   114774584.514    89434741.179
  20401432.505    20401432.505    20401432.505   107210251.423    83540455.655
  23188415.367    23188415.367    23188415.367   121855945.214    94952684.582
  24298320.095    24298320.095    24298320.095   127688533.926    99497558.903
 03  5 13  1  0  0.0000000  0  9  2  3  6 15 16 17 18 21 23         
  22081693.209    22081693.209    22081693.209   116040081.019    90420842.353
  24507856.323    24507856.323    24507856.323   128789654.236   100355574.729
  22261754.238    22261754.238    22261754.238   116986308.113    91158162.166
  20635521.220    20635521.220    20635521.220   108440395.924    84499009.811
  21091870.878    21091870.878    21091870.878   110838529.562    86367685.373
  20988197.737    20988197.737    20988197.737   110293723.529    85943161.192
  21383169.093    21383169.093    21383169.093   112369312.014    87560502.868
  20616998.729    20616998.729    20616998.729   108343059.576    84423163.306
  22539414.842    22539414.842    22539414.842   118445424.436    92295135.924
 03  5 13  1 15  0.0000000  0  9  2  3  6 15 16 17 18 21 23         
  21769676.541    21769676.541    21769676.541   114400422.362    89143186.256
  23989583.409    23989583.409    23989583.409   126066111.691    98233333.785
  22683847.302    22683847.302    22683847.302   119204422.136    92886562.703
  20536756.018    20536756.018    20536756.018   107921381.284    84094582.819
  20959705.814    20959705.814    20959705.814   110143997.463    85826491.530
  21403399.831    21403399.831    21403399.831   112475625.260    87643344.358
  21002708.859    21002708.859    21002708.859   110369979.990    86002581.810
  20885567.944    20885567.944    20885567.944   109754400.327    85522909.346
  21932031.573    21932031.573    21932031.573   115253603.814    89808002.972
 03  5 13  1 30  0.0000000  0 10  2  3  6 15 16 17 18 21 23 26      
  21560133.870    21560133.870    21560133.870   113299268.194    88285144.047
  23473537.561    23473537.561    23473537.561   123354272.456    96120212.303
  23142168.884    23142168.884    23142168.884   121612918.305    94763312.965
  20498414.287    20498414.287    20498414.287   107719894.128    83937579.840
  20929808.487    20929808.487    20929808.487   109986885.950    85704066.974
  21853976.760    21853976.760    21853976.760   114843423.003    89488381.561
  20711055.678    20711055.678    20711055.678   108837332.179    84808310.789
  21198142.025    21198142.025    21198142.025   111396988.209    86802847.955
  21382317.428    21382317.428    21382317.428   112364836.484    87557015.442
  24808614.610    24808614.610    24808614.610   130370149.702   101587129.638
 03  5 13  1 45  0.0000000  0 10  2  3  6 15 16 17 18 21 23 26      
  21459651.517    21459651.517    21459651.517   112771229.865    87873685.609
  22966034.240    22966034.240    22966034.240   120687324.504    94042071.042
  23633946.156    23633946.156    23633946.156   124197225.312    96777058.685
  20515606.491    20515606.491    20515606.491   107810239.769    84007979.041
  21003908.146    21003908.146    21003908.146   110376282.286    86007492.690
  22329655.967    22329655.967    22329655.967   117343134.108    91436208.396
  20516806.306    20516806.306    20516806.306   107816544.840    84012892.083
  21546237.336    21546237.336    21546237.336   113226241.415    88228240.064
  20905514.986    20905514.986    20905514.986   109859222.740    85604589.148
  24679948.353    24679948.353    24679948.353   129694003.958   101060262.824
 03  5 13  2  0  0.0000000  0 11  2  3  6 15 16 17 18 21 22 23 26   
  21470664.516    21470664.516    21470664.516   112829103.565    87918781.999
  22474701.863    22474701.863    22474701.863   118105355.436    92030147.093
  24155661.629    24155661.629    24155661.629   126938858.627    98913396.333
  20582884.965    20582884.965    20582884.965   108163790.537    84283473.145
  21179735.116    21179735.116    21179735.116   111300259.250    86727474.740
  22821555.292    22821555.292    22821555.292   119928082.507    93450453.902
  20424982.726    20424982.726    20424982.726   107334008.670    83636889.873
  21922225.114    21922225.114    21922225.114   115202070.524    89767847.162
  24743609.651    24743609.651    24743609.651   130028546.336   101320945.197
  20515241.491    20515241.491    20515241.491   107808321.681    84006484.427
  24629348.371    24629348.371    24629348.371   129428099.257   100853064.356
 03  5 13  2 15  0.0000000  0 12  2  3  6 15 16 17 18 21 22 23 26 31
  21591152.329    21591152.329    21591152.329   113462271.296    88412159.452
  22008425.735    22008425.735    22008425.735   115655057.845    90120824.295
  24703031.287    24703031.287    24703031.287   129815305.594   101154783.580
  20694663.698    20694663.698    20694663.698   108751191.743    84741188.371
  21451120.774    21451120.774    21451120.774   112726400.508    87838753.643
  23322298.257    23322298.257    23322298.257   122559504.549    95500912.636
  20436694.603    20436694.603    20436694.603   107395554.999    83684848.051
  22319545.558    22319545.558    22319545.558   117290003.550    91394807.961
  24308854.777    24308854.777    24308854.777   127743894.053    99540696.665
  20222616.971    20222616.971    20222616.971   106270569.450    82808235.935
  24661572.074    24661572.074    24661572.074   129597435.960   100985015.033
  24624219.731    24624219.731    24624219.731   129401148.072   100832063.433
 03  5 13  2 30  0.0000000  0 11  2  3 15 16 17 18 21 22 23 26 31   
  21814752.592    21814752.592    21814752.592   114637298.609    89327765.150
  21577189.525    21577189.525    21577189.525   113388896.266    88354984.103
  20845593.263    20845593.263    20845593.263   109544331.960    85359219.709
  21808431.607    21808431.607    21808431.607   114604081.609    89301881.773
  23826019.924    23826019.924    23826019.924   125206579.775    97563568.656
  20549150.166    20549150.166    20549150.166   107986512.971    84145334.783
  22732806.632    22732806.632    22732806.632   119461705.151    93087042.975
  23938372.811    23938372.811    23938372.811   125796998.182    98023634.947
  20035453.683    20035453.683    20035453.683   105287019.733    82041833.558
  24778248.505    24778248.505    24778248.505   130210574.743   101462785.514
  24076066.945    24076066.945    24076066.945   126520585.740    98587469.408
 03  5 13  2 45  0.0000000  0 10  2  3 15 16 17 18 21 22 23 31      
  22131271.666    22131271.666    22131271.666   116300617.569    90623857.846
  21191790.663    21191790.663    21191790.663   111363611.577    86776840.190
  21030858.170    21030858.170    21030858.170   110517905.618    86117848.533
  22239249.889    22239249.889    22239249.889   116868046.961    91066010.619
  24328284.136    24328284.136    24328284.136   127845996.024    99620256.642
  20756024.320    20756024.320    20756024.320   109073643.988    84992449.861
  23157789.046    23157789.046    23157789.046   121695002.810    94827274.917
  23641914.954    23641914.954    23641914.954   124239101.628    96809689.580
  19957650.989    19957650.989    19957650.989   104878163.817    81723244.532
  23533632.527    23533632.527    23533632.527   123670073.634    96366291.143
 03  5 13  3  0  0.0000000  0 10  2  3 15 16 17 18 21 22 23 31      
  22527481.442    22527481.442    22527481.442   118382713.995    92246270.646
  20863414.544    20863414.544    20863414.544   109637983.424    85432194.876
  21246389.397    21246389.397    21246389.397   111650529.860    87000412.878
  22729180.062    22729180.062    22729180.062   119442647.397    93072192.777
  24825941.579    24825941.579    24825941.579   130461203.538   101658080.679
  21048118.293    21048118.293    21048118.293   110608608.176    86188525.852
  23591375.127    23591375.127    23591375.127   123973513.045    96602737.437
  23427168.468    23427168.468    23427168.468   123110601.228    95930338.619
  19988918.382    19988918.382    19988918.382   105042475.076    81851279.280
  23006062.517    23006062.517    23006062.517   120897674.519    94205980.145
 03  5 13  3 15  0.0000000  0  9  2  3 15 16 18 21 22 23 31         
  22988057.265    22988057.265    22988057.265   120803056.281    94132251.648
  20603064.747    20603064.747    20603064.747   108269836.007    84366105.979
  21488980.882    21488980.882    21488980.882   112925356.718    87993784.456
  23262664.100    23262664.100    23262664.100   122246124.939    95256720.732
  21414195.533    21414195.533    21414195.533   112532357.057    87687550.953
  24031420.416    24031420.416    24031420.416   126285966.646    98404649.335
  23299154.025    23299154.025    23299154.025   122437880.789    95406140.875
  20124905.774    20124905.774    20124905.774   105757093.644    82408124.917
  22503754.276    22503754.276    22503754.276   118258026.896    92149111.867
 03  5 13  3 30  0.0000000  0  9  2  3 15 16 18 21 22 23 31         
  23496508.736    23496508.736    23496508.736   123474986.795    96214275.425
  20420871.505    20420871.505    20420871.505   107312404.058    83620055.110
  21756322.467    21756322.467    21756322.467   114330246.230    89088503.556
  23823720.037    23823720.037    23823720.037   125194493.788    97554151.003
  21841862.491    21841862.491    21841862.491   114779762.090    89438775.654
  24476586.046    24476586.046    24476586.046   128625327.821   100227528.172
  23259763.080    23259763.080    23259763.080   122230879.976    95244841.540
  20357722.466    20357722.466    20357722.466   106980553.618    83361470.352
  22038131.758    22038131.758    22038131.758   115811164.049    90242465.493
 03  5 13  3 45  0.0000000  0  9  2  3 15 16 18 21 22 23 31         
  24036009.658    24036009.658    24036009.658   126310083.276    98423441.514
  20325334.871    20325334.871    20325334.871   106810355.658    83228848.564
  22046953.424    22046953.424    22046953.424   115857522.217    90278588.741
  24396554.972    24396554.972    24396554.972   128204761.689    99899814.303
  22318382.717    22318382.717    22318382.717   117283892.779    91390046.321
  24926145.569    24926145.569    24926145.569   130987779.060   102068399.267
  23307507.094    23307507.094    23307507.094   122481776.463    95440345.296
  20676746.782    20676746.782    20676746.782   108657037.714    84667821.595
  21621286.128    21621286.128    21621286.128   113620625.479    88535552.321
 03  5 13  4  0  0.0000000  0  8  2  3 11 15 18 22 23 31            
  24590061.689    24590061.689    24590061.689   129221646.350   100692191.961
  20322587.540    20322587.540    20322587.540   106795918.336    83217598.703
  24360329.509    24360329.509    24360329.509   128014395.596    99751477.088
  22360150.228    22360150.228    22360150.228   117503382.531    91561077.297
  22831355.907    22831355.907    22831355.907   119979585.087    93490585.782
  23437524.326    23437524.326    23437524.326   123165021.629    95972744.126
  21069588.531    21069588.531    21069588.531   110721435.039    86276442.887
  21265464.196    21265464.196    21265464.196   111750768.606    87078520.991
 03  5 13  4 15  0.0000000  0  7  3 11 15 18 22 23 31               
  20415786.566    20415786.566    20415786.566   107285682.523    83599233.135
  23871207.611    23871207.611    23871207.611   125444042.673    97748604.681
  22695761.316    22695761.316    22695761.316   119267030.702    92935348.599
  23369228.114    23369228.114    23369228.114   122806122.612    95693082.555
  23641842.811    23641842.811    23641842.811   124238722.514    96809394.167
  21523041.925    21523041.925    21523041.925   113104348.707    88133258.733
  20982410.050    20982410.050    20982410.050   110263309.029    85919461.581
 03  5 13  4 30  0.0000000  0  7  3 11 15 18 22 23 31               
  20604724.972    20604724.972    20604724.972   108278560.548    84372904.323
  23386706.369    23386706.369    23386706.369   122897971.462    95764653.087
  23054005.229    23054005.229    23054005.229   121149615.171    94402297.536
  23921636.689    23921636.689    23921636.689   125709049.267    97955103.325
  23909857.573    23909857.573    23909857.573   125647149.595    97906869.814
  22023929.663    22023929.663    22023929.663   115736531.536    90184310.288
  20782591.946    20782591.946    20782591.946   109213257.805    85101239.848
 03  5 13  4 45  0.0000000  0  7  3 11 15 18 22 23 31               
  20885735.591    20885735.591    20885735.591   109755281.318    85523595.832
  22910900.923    22910900.923    22910900.923   120397596.967    93816309.325
  23435246.311    23435246.311    23435246.311   123153050.579    95963416.036
  24479611.016    24479611.016    24479611.016   128641224.146   100239914.919
  24228953.203    24228953.203    24228953.203   127324008.448    99213513.076
  22559764.485    22559764.485    22559764.485   118552362.531    92378464.310
  20674385.602    20674385.602    20674385.602   108644629.629    84658152.958
 03  5 13  5  0  0.0000000  0  5  3 11 15 23 31                     
  21251889.002    21251889.002    21251889.002   111679430.480    87022932.841
  22448945.823    22448945.823    22448945.823   117970006.532    91924680.414
  23839765.765    23839765.765    23839765.765   125278814.657    97619855.577
  23119213.723    23119213.723    23119213.723   121492288.120    94669315.418
  20663316.418    20663316.418    20663316.418   108586460.675    84612826.500
 03  5 13  5 15  0.0000000  0  6  3 11 15 20 23 31                  
  21693444.126    21693444.126    21693444.126   113999818.318    88831027.260
  22007118.214    22007118.214    22007118.214   115648186.776    90115470.215
  24267539.183    24267539.183    24267539.183   127526779.142    99371516.214
  24473351.248    24473351.248    24473351.248   128608328.843   100214282.215
  23692380.362    23692380.362    23692380.362   124504299.137    97016336.990
  20751478.181    20751478.181    20751478.181   109049753.866    84973834.182
 03  5 13  5 30  0.0000000  0  6  3 11 15 20 23 31                  
  22198460.024    22198460.024    22198460.024   116653694.774    90898982.941
  21592790.280    21592790.280    21592790.280   113470878.787    88418866.587
  24718038.782    24718038.782    24718038.782   129894170.513   101216236.763
  23999933.986    23999933.986    23999933.986   126120504.340    98275717.667
  24270932.661    24270932.661    24270932.661   127544611.989    99385411.939
  20937227.767    20937227.767    20937227.767   110025874.529    85734447.685
 03  5 13  5 45  0.0000000  0  5  3 11 20 25 31                     
  22753482.157    22753482.157    22753482.157   119570355.769    93171705.794
  21214309.215    21214309.215    21214309.215   111481947.366    86869049.896
  23553114.793    23553114.793    23553114.793   123772453.633    96446067.766
  24262504.494    24262504.494    24262504.494   127500321.672    99350900.004
  21215209.235    21215209.235    21215209.235   111486677.003    86872735.327
 03  5 13  6  0  0.0000000  0  5  3 11 20 25 31                     
  23344206.154    23344206.154    23344206.154   122674631.325    95590621.812
  20880767.661    20880767.661    20880767.661   109729174.670    85503252.989
  23134209.732    23134209.732    23134209.732   121571092.679    94730721.568
  23755449.106    23755449.106    23755449.106   124835727.624    97274592.954
  21576695.156    21576695.156    21576695.156   113386298.339    88352959.745
 03  5 13  6 15  0.0000000  0  5  3 11 20 25 31                     
  23956073.786    23956073.786    23956073.786   125890017.433    98096117.480
  20601651.604    20601651.604    20601651.604   108262409.890    84360319.395
  22743971.490    22743971.490    22743971.490   119520376.876    93132761.202
  23275435.915    23275435.915    23275435.915   122313241.280    95309019.179
  22010174.613    22010174.613    22010174.613   115664248.261    90127985.658
 03  5 13  6 30  0.0000000  0  6  1  3 11 20 25 31                  
  24224968.381    24224968.381    24224968.381   127303068.067    99197195.896
  24574764.928    24574764.928    24574764.928   129141261.328   100629554.282
  20386365.623    20386365.623    20386365.623   107131074.424    83478759.292
  22382762.138    22382762.138    22382762.138   117622208.920    91653669.288
  22839044.298    22839044.298    22839044.298   120019987.854    93522068.458
  22502084.521    22502084.521    22502084.521   118249252.275    92142274.500
 03  5 13  6 45  0.0000000  0  5  1 11 20 25 31                     
  23591602.122    23591602.122    23591602.122   123974705.912    96603666.944
  20243655.446    20243655.446    20243655.446   106381127.382    82894384.973
  22050753.695    22050753.695    22050753.695   115877492.776    90294150.215
  22462490.587    22462490.587    22462490.587   118041184.747    91980143.959
  23037575.898    23037575.898    23037575.898   121063278.454    94335022.172
 03  5 13  7  0  0.0000000  0  6  1  7 11 20 25 31                  
  22988814.228    22988814.228    22988814.228   120807034.149    94135351.285
  24122223.855    24122223.855    24122223.855   126763141.939    98776474.238
  20180971.487    20180971.487    20180971.487   106051720.954    82637704.640
  21748139.982    21748139.982    21748139.982   114287246.981    89054997.647
  22160829.284    22160829.284    22160829.284   116455943.900    90744891.351
  23601232.950    23601232.950    23601232.950   124025316.254    96643103.575
 03  5 13  7 15  0.0000000  0  6  1  7 11 20 25 31                  
  22426654.139    22426654.139    22426654.139   117852862.942    91833399.695
  23836250.504    23836250.504    23836250.504   125260341.836    97605461.171
  20203841.796    20203841.796    20203841.796   106171905.239    82731354.732
  21475345.046    21475345.046    21475345.046   112853699.917    87937947.987
  21947065.758    21947065.758    21947065.758   115332608.989    89869565.446
  24177692.140    24177692.140    24177692.140   127054629.744    99003607.593
 03  5 13  7 30  0.0000000  0  5  1  7 11 20 25                     
  21914229.823    21914229.823    21914229.823   115160054.986    89735107.782
  23642674.004    23642674.004    23642674.004   124243090.463    96812797.763
  20315336.644    20315336.644    20315336.644   106757814.620    83187907.496
  21233209.586    21233209.586    21233209.586   111581269.486    86946443.755
  21831276.953    21831276.953    21831276.953   114724134.712    89395429.646
 03  5 13  7 45  0.0000000  0  6  1  7 11 13 20 25                  
  21459381.237    21459381.237    21459381.237   112769809.534    87872578.858
  23545820.848    23545820.848    23545820.848   123734123.693    96416200.280
  20515703.883    20515703.883    20515703.883   107810751.568    84008377.845
  24463362.775    24463362.775    24463362.775   128555839.063   100173381.088
  21023140.415    21023140.415    21023140.415   110477348.542    86086245.617
  21819871.598    21819871.598    21819871.598   114664199.167    89348726.624
 03  5 13  8  0  0.0000000  0  6  1  7 11 13 20 25                  
  21068376.070    21068376.070    21068376.070   110715063.513    86271478.062
  23546267.542    23546267.542    23546267.542   123736471.086    96418029.417
  20802229.878    20802229.878    20802229.878   109316455.834    85181653.897
  23913343.959    23913343.959    23913343.959   125665470.677    97921145.982
  20847205.002    20847205.002    20847205.002   109552801.706    85365819.511
  21915115.911    21915115.911    21915115.911   115164711.410    89738736.164
 03  5 13  8 15  0.0000000  0  6  1  7 11 13 20 25                  
  20745675.796    20745675.796    20745675.796   109019262.127    84950074.385
  23640728.132    23640728.132    23640728.132   124232864.836    96804829.743
  21169340.554    21169340.554    21169340.554   111245635.458    86684910.746
  23396419.093    23396419.093    23396419.093   122949012.171    95804425.069
  20708160.000    20708160.000    20708160.000   108822115.289    84796453.472
  22115021.460    22115021.460    22115021.460   116215222.161    90557315.969
 03  5 13  8 30  0.0000000  0  7  1  4  7 11 13 20 25               
  20493795.726    20493795.726    20493795.726   107695623.426    83918667.604
  24660081.104    24660081.104    24660081.104   129589600.859   100978909.761
  23822257.964    23822257.964    23822257.964   125186810.542    97548164.059
  21608915.683    21608915.683    21608915.683   113555618.352    88484897.417
  22917777.835    22917777.835    22917777.835   120433735.384    93844469.130
  20609401.580    20609401.580    20609401.580   108303136.289    84392054.251
  22413618.933    22413618.933    22413618.933   117784362.472    91780022.705
 03  5 13  8 45  0.0000000  0  7  1  4  7 11 13 20 25               
  20313292.391    20313292.391    20313292.391   106747071.998    83179536.622
  24061425.617    24061425.617    24061425.617   126443645.042    98527515.617
  24080735.253    24080735.253    24080735.253   126545117.864    98606585.348
  22110755.899    22110755.899    22110755.899   116192806.486    90539849.210
  22481458.497    22481458.497    22481458.497   118140861.787    92057814.379
  20554834.125    20554834.125    20554834.125   108016382.377    84168609.645
  22801566.370    22801566.370    22801566.370   119823040.013    93368602.608
 03  5 13  9  0  0.0000000  0  7  1  4  7 11 13 20 25               
  20202882.765    20202882.765    20202882.765   106166865.497    82727427.660
  23498419.585    23498419.585    23498419.585   123485028.375    96222100.032
  24403540.364    24403540.364    24403540.364   128241470.172    99928418.315
  22663128.845    22663128.845    22663128.845   119095545.909    92801724.085
  22090306.395    22090306.395    22090306.395   116085343.617    90456111.910
  20548657.792    20548657.792    20548657.792   107983925.528    84143318.594
  23266976.525    23266976.525    23266976.525   122268786.885    95274379.391
 03  5 13  9 15  0.0000000  0  8  1  2  4 11 13 16 20 25            
  20159693.260    20159693.260    20159693.260   105939903.117    82550573.857
  24516312.071    24516312.071    24516312.071   128834089.492   100390199.604
  22985212.761    22985212.761    22985212.761   120788108.312    94120603.879
  23253326.689    23253326.689    23253326.689   122197056.513    95218485.595
  21745999.624    21745999.624    21745999.624   114275999.324    89046233.239
  24631955.423    24631955.423    24631955.423   129441799.408   100863739.799
  20595085.455    20595085.455    20595085.455   108227904.544    84333432.112
  23796331.317    23796331.317    23796331.317   125050565.093    97441998.774
 03  5 13  9 30  0.0000000  0  9  1  2  4 11 13 16 20 25 27         
  20179612.778    20179612.778    20179612.778   106044580.890    82632140.954
  24012173.048    24012173.048    24012173.048   126184821.045    98325834.580
  22535993.937    22535993.937    22535993.937   118427447.458    92281127.890
  23868182.494    23868182.494    23868182.494   125428145.576    97736217.332
  21449144.163    21449144.163    21449144.163   112716013.347    87830659.751
  24292006.594    24292006.594    24292006.594   127655356.254    99471706.172
  20698007.479    20698007.479    20698007.479   108768763.431    84754880.595
  24375358.574    24375358.574    24375358.574   128093373.865    99813018.596
  24339950.311    24339950.311    24339950.311   127907302.188    99668027.679
 03  5 13  9 45  0.0000000  0  8  1  2  4 11 13 16 20 27            
  20257693.491    20257693.491    20257693.491   106454897.807    82951868.421
  23539894.202    23539894.202    23539894.202   123702978.958    96391931.656
  22164236.285    22164236.285    22164236.285   116473847.811    90758842.450
  24494516.808    24494516.808    24494516.808   128719554.612   100300951.645
  21199434.312    21199434.312    21199434.312   111403779.223    86808139.654
  24009453.581    24009453.581    24009453.581   126170530.149    98314698.818
  20860633.607    20860633.607    20860633.607   109623369.502    85420807.404
  23640846.937    23640846.937    23640846.937   124233489.161    96805316.229
 03  5 13 10  0  0.0000000  0  9  1  2  4 13 16 20 22 24 27         
  20388573.807    20388573.807    20388573.807   107142678.509    83487801.436
  23117134.964    23117134.964    23117134.964   121481364.168    94660803.247
  21881815.201    21881815.201    21881815.201   114989714.998    89602375.323
  20995866.421    20995866.421    20995866.421   110334022.736    85974563.171
  23797587.633    23797587.633    23797587.633   125057167.078    97447143.178
  21085144.752    21085144.752    21085144.752   110803183.532    86340143.012
  24450015.487    24450015.487    24450015.487   128485698.591   100118726.175
  24163388.242    24163388.242    24163388.242   126979462.253    98945035.521
  22964432.433    22964432.433    22964432.433   120678906.951    94035511.910
 03  5 13 10 15  0.0000000  0  9  1  2  4 13 16 20 22 24 27         
  20566864.682    20566864.682    20566864.682   108079603.381    84217872.765
  22761114.787    22761114.787    22761114.787   119610465.510    93202960.138
  21698084.521    21698084.521    21698084.521   114024203.758    88850028.902
  20836987.093    20836987.093    20836987.093   109499106.232    85323978.882
  23667486.706    23667486.706    23667486.706   124373482.092    96914401.630
  21372392.141    21372392.141    21372392.141   112312678.749    87516373.051
  23997139.223    23997139.223    23997139.223   126105817.761    98264273.580
  23666508.992    23666508.992    23666508.992   124368344.170    96910398.055
  22323979.439    22323979.439    22323979.439   117313303.752    91412963.962
 03  5 13 10 30  0.0000000  0 10  1  2  4  8 13 16 20 22 24 27      
  20787473.948    20787473.948    20787473.948   109238912.899    85121230.830
  22487679.733    22487679.733    22487679.733   118173554.603    92083289.301
  21619031.476    21619031.476    21619031.476   113608777.203    88526319.898
  23795421.637    23795421.637    23795421.637   125045784.692    97438273.786
  20721153.604    20721153.604    20721153.604   108890397.139    84849660.108
  23627315.363    23627315.363    23627315.363   124162380.260    96749906.696
  21721674.838    21721674.838    21721674.838   114148171.710    88946627.307
  23558655.742    23558655.742    23558655.742   123801571.516    96468757.025
  23243516.061    23243516.061    23243516.061   122145501.315    95178312.713
  21732447.838    21732447.838    21732447.838   114204784.208    88990740.941
 03  5 13 10 45  0.0000000  0 10  1  2  4  8 13 16 20 22 24 27      
  21045843.619    21045843.619    21045843.619   110596654.684    86179211.442
  22310279.472    22310279.472    22310279.472   117241309.939    91356864.888
  21646648.900    21646648.900    21646648.900   113753907.745    88639408.633
  23189511.909    23189511.909    23189511.909   121861707.581    94957174.738
  20646783.786    20646783.786    20646783.786   108499581.107    84545128.136
  23681785.428    23681785.428    23681785.428   124448622.383    96972952.506
  22130616.817    22130616.817    22130616.817   116297176.315    90621176.349
  23148167.347    23148167.347    23148167.347   121644440.441    94787875.668
  22907136.606    22907136.606    22907136.606   120377815.348    93800895.076
  21201993.625    21201993.625    21201993.625   111417228.504    86818619.613
 03  5 13 11  0  0.0000000  0 10  1  2  4  8 13 16 20 22 24 27      
  21338094.400    21338094.400    21338094.400   112132442.904    87375929.535
  22238965.261    22238965.261    22238965.261   116866551.231    91064845.115
  21778642.666    21778642.666    21778642.666   114447539.667    89179901.039
  22622504.465    22622504.465    22622504.465   118882063.351    92635374.040
  20612571.172    20612571.172    20612571.172   108319792.607    84405033.200
  23831862.696    23831862.696    23831862.696   125237283.750    97587493.831
  22595153.589    22595153.589    22595153.589   118738333.528    92523376.775
  22779007.096    22779007.096    22779007.096   119704490.228    93276226.152
  22667670.492    22667670.492    22667670.492   119119412.425    92820321.370
  20743422.239    20743422.239    20743422.239   109007419.605    84940846.446
 03  5 13 11 15  0.0000000  0 10  1  2  4  8 13 16 20 22 24 27      
  21661079.964    21661079.964    21661079.964   113829743.498    88698501.427
  22279583.731    22279583.731    22279583.731   117080002.731    91231170.960
  22008529.299    22008529.299    22008529.299   115655602.077    90121248.372
  22104198.817    22104198.817    22104198.817   116158348.788    90512999.055
  20617648.579    20617648.579    20617648.579   108346474.561    84425824.333
  24074771.249    24074771.249    24074771.249   126513776.811    98582163.749
  23109620.211    23109620.211    23109620.211   121441873.874    94630031.590
  22463712.996    22463712.996    22463712.996   118047608.550    91985149.519
  22532121.811    22532121.811    22532121.811   118407099.299    92265272.181
  20365628.478    20365628.478    20365628.478   107022099.992    83393844.149
 03  5 13 11 30  0.0000000  0 10  1  2  4  8 13 16 20 22 24 27      
  22012356.811    22012356.811    22012356.811   115675715.789    90136921.394
  22433308.621    22433308.621    22433308.621   117887832.481    91860648.686
  22326102.649    22326102.649    22326102.649   117324461.295    91421658.152
  21643061.739    21643061.739    21643061.739   113735057.087    88624719.808
  20661685.351    20661685.351    20661685.351   108577889.360    84606147.553
  24404294.526    24404294.526    24404294.526   128245433.320    99931506.483
  23666925.639    23666925.639    23666925.639   124370533.665    96912104.155
  22213455.087    22213455.087    22213455.087   116732494.362    90960385.217
  22503527.138    22503527.138    22503527.138   118256833.278    92148181.775
  20075089.959    20075089.959    20075089.959   105495309.769    82204137.483
 03  5 13 11 45  0.0000000  0 10  1  2  4  8 10 13 20 22 24 27      
  22390089.900    22390089.900    22390089.900   117660716.569    91683675.249
  22696610.924    22696610.924    22696610.924   119271495.422    92938827.602
  22718175.777    22718175.777    22718175.777   119384819.489    93027132.070
  21245877.652    21245877.652    21245877.652   111647840.622    86998317.368
  24677098.232    24677098.232    24677098.232   129679026.471   101048592.055
  20744911.335    20744911.335    20744911.335   109015244.858    84946944.045
  24258787.985    24258787.985    24258787.985   127480791.286    99335681.521
  22037461.182    22037461.182    22037461.182   115807640.149    90239719.596
  22580596.322    22580596.322    22580596.322   118661834.574    92463767.200
  19875491.795    19875491.795    19875491.795   104446414.338    81386816.367
 03  5 13 12  0  0.0000000  0  9  1  2  4  8 10 13 22 24 27         
  22792905.683    22792905.683    22792905.683   119777527.796    93333138.542
  23061676.230    23061676.230    23061676.230   121189926.553    94433709.003
  23169464.903    23169464.903    23169464.903   121756359.853    94875085.600
  20917466.298    20917466.298    20917466.298   109922027.309    85653527.773
  24072238.682    24072238.682    24072238.682   126500468.082    98571793.311
  20868064.771    20868064.771    20868064.771   109662420.532    85451236.778
  21942504.855    21942504.855    21942504.855   115308641.282    89850889.311
  22757738.501    22757738.501    22757738.501   119592723.007    93189134.811
  19767552.748    19767552.748    19767552.748   103879190.818    80944824.014
 03  5 13 12 15  0.0000000  0 10  1  2  4  8 10 13 22 24 27 28      
  23219713.753    23219713.753    23219713.753   122020419.342    95080846.241
  23517183.353    23517183.353    23517183.353   123583632.641    96298934.525
  23663489.961    23663489.961    23663489.961   124352479.055    96898035.627
  20660509.325    20660509.325    20660509.325   108571709.302    84601331.923
  23490507.613    23490507.613    23490507.613   123443450.681    96189701.829
  21032270.993    21032270.993    21032270.993   110525330.053    86123633.807
  21932523.312    21932523.312    21932523.312   115256187.920    89810016.561
  23025465.786    23025465.786    23025465.786   120999639.386    94285433.288
  19749097.278    19749097.278    19749097.278   103782206.668    80869251.949
  24500518.587    24500518.587    24500518.587   128751094.173   100325527.927
 03  5 13 12 30  0.0000000  0 10  1  2  4  8 10 13 22 24 27 28      
  23669509.196    23669509.196    23669509.196   124384110.349    96922683.389
  24049291.296    24049291.296    24049291.296   126379878.754    98477827.601
  24183388.921    24183388.921    24183388.921   127084566.530    99026934.959
  20475514.153    20475514.153    20475514.153   107599553.111    83843807.619
  22945248.014    22945248.014    22945248.014   120578092.149    93956954.921
  21238859.555    21238859.555    21238859.555   111610960.274    86969579.434
  22008426.214    22008426.214    22008426.214   115655060.362    90120826.256
  23371096.814    23371096.814    23371096.814   122815942.697    95700734.569
  19815372.394    19815372.394    19815372.394   104130484.753    81140637.470
  23834895.546    23834895.546    23834895.546   125253221.484    97599912.845
 03  5 13 12 45  0.0000000  0  8  1  8 10 13 22 24 27 28            
  24141179.526    24141179.526    24141179.526   126862754.662    98854094.542
  20360932.268    20360932.268    20360932.268   106997421.242    83374613.954
  22450518.574    22450518.574    22450518.574   117978271.394    91931120.567
  21489139.469    21489139.469    21489139.469   112926190.099    87994433.843
  22168129.686    22168129.686    22168129.686   116494307.772    90774785.277
  23779629.897    23779629.897    23779629.897   124962798.538    97373609.251
  19959565.332    19959565.332    19959565.332   104888223.757    81731083.447
  23181185.020    23181185.020    23181185.020   121817949.484    94923077.520
 03  5 13 13  0  0.0000000  0  7  8 10 13 22 24 27 28               
  20313422.233    20313422.233    20313422.233   106747754.322    83180068.303
  22020503.722    22020503.722    22020503.722   115718528.095    90170281.632
  21784148.482    21784148.482    21784148.482   114476472.926    89202446.435
  22406811.400    22406811.400    22406811.400   117748588.645    91752146.996
  24234660.067    24234660.067    24234660.067   127353998.221    99236881.731
  20173441.097    20173441.097    20173441.097   106012148.488    82606868.952
  22554371.025    22554371.025    22554371.025   118524019.708    92356378.993
 03  5 13 13 15  0.0000000  0  8  8 10 13 22 27 28 29 31            
  20328229.271    20328229.271    20328229.271   106825565.832    83240700.649
  21668748.646    21668748.646    21668748.646   113870042.694    88729903.398
  22124402.330    22124402.330    22124402.330   116264518.965    90595729.064
  22717348.775    22717348.775    22717348.775   119380473.565    93023745.635
  20448009.423    20448009.423    20448009.423   107455014.780    83731180.348
  21969602.476    21969602.476    21969602.476   115451040.242    89961849.539
  23990443.130    23990443.130    23990443.130   126070629.555    98236854.199
  24848872.827    24848872.827    24848872.827   130581708.060   101751980.306
 03  5 13 13 30  0.0000000  0  8  8 10 13 22 27 28 29 31            
  20399636.582    20399636.582    20399636.582   107200813.784    83533101.650
  21407260.489    21407260.489    21407260.489   112495913.155    87659153.108
  22509665.072    22509665.072    22509665.072   118289088.339    92173315.589
  23090874.794    23090874.794    23090874.794   121343366.043    94553272.241
  20774140.885    20774140.885    20774140.885   109168847.180    85066634.166
  21441653.888    21441653.888    21441653.888   112676651.686    87799988.327
  23447283.092    23447283.092    23447283.092   123216304.290    96012704.642
  24703434.502    24703434.502    24703434.502   129817424.504   101156434.678
 03  5 13 13 45  0.0000000  0  8  8 10 13 22 27 28 29 31            
  20521435.257    20521435.257    20521435.257   107840870.142    84031846.864
  21245552.979    21245552.979    21245552.979   111646134.454    86996987.886
  22938759.993    22938759.993    22938759.993   120543997.368    93930387.560
  23517378.201    23517378.201    23517378.201   123584656.574    96299732.395
  21143075.335    21143075.335    21143075.335   111107610.800    86577359.065
  20984271.721    20984271.721    20984271.721   110273092.176    85927084.812
  22912608.403    22912608.403    22912608.403   120406569.835    93823301.170
  24628618.567    24628618.567    24628618.567   129424264.111   100850075.931
 03  5 13 14  0  0.0000000  0  9  8 10 13 22 26 27 28 29 31         
  20687367.725    20687367.725    20687367.725   108712851.146    84711312.581
  21189774.662    21189774.662    21189774.662   111353017.420    86768585.002
  23409438.584    23409438.584    23409438.584   123017430.058    95857737.708
  23986283.264    23986283.264    23986283.264   126048769.312    98219820.243
  24762831.529    24762831.529    24762831.529   130129557.987   101399655.574
  21546794.746    21546794.746    21546794.746   113229170.624    88230522.564
  20609443.167    20609443.167    20609443.167   108303354.830    84392224.543
  22394437.719    22394437.719    22394437.719   117683564.512    91701478.841
  24630373.746    24630373.746    24630373.746   129433487.639   100857263.096
 03  5 13 14 15  0.0000000  0  9  8 10 13 22 26 27 28 29 31         
  20891505.861    20891505.861    20891505.861   109785604.291    85547224.123
  21242048.166    21242048.166    21242048.166   111627716.537    86982636.263
  23918313.560    23918313.560    23918313.560   125691586.106    97941495.667
  24486961.985    24486961.985    24486961.985   128679853.749   100270015.908
  24201789.478    24201789.478    24201789.478   127181262.110    99102282.163
  21978256.922    21978256.922    21978256.922   115496519.662    89997288.049
  20326658.314    20326658.314    20326658.314   106817310.398    83234267.842
  21902178.551    21902178.551    21902178.551   115096725.124    89685759.837
  24711817.347    24711817.347    24711817.347   129861476.651   101190761.027
 03  5 13 14 30  0.0000000  0  8  8 10 13 26 27 28 29 31            
  21128542.207    21128542.207    21128542.207   111031238.697    86517848.335
  21400160.497    21400160.497    21400160.497   112458602.445    87630079.827
  24460860.147    24460860.147    24460860.147   128542687.664   100163133.245
  23637707.229    23637707.229    23637707.229   124216989.884    96792459.650
  22431502.572    22431502.572    22431502.572   117878341.629    91853253.218
  20142267.024    20142267.024    20142267.024   105848327.629    82479216.334
  21446467.956    21446467.956    21446467.956   112701949.784    87819701.131
  24873089.038    24873089.038    24873089.038   130708965.108   101851141.642
 03  5 13 14 45  0.0000000  0  7  7  8 10 26 27 28 29               
  24159124.649    24159124.649    24159124.649   126957056.920    98927576.821
  21393984.458    21393984.458    21393984.458   112426147.141    87604789.980
  21657652.535    21657652.535    21657652.535   113811732.237    88684466.678
  23078991.491    23078991.491    23078991.491   121280918.864    94504612.102
  22901657.776    22901657.776    22901657.776   120349023.902    93778460.183
  20059042.428    20059042.428    20059042.428   105410979.425    82138425.526
  21038871.664    21038871.664    21038871.664   110560016.813    86150662.452
 03  5 13 15  0  0.0000000  0  7  7  8 10 26 27 28 29               
  23555554.689    23555554.689    23555554.689   123785275.373    96456058.732
  21684254.111    21684254.111    21684254.111   113951524.463    88793395.685
  22004288.700    22004288.700    22004288.700   115633317.579    90103883.828
  22535640.307    22535640.307    22535640.307   118425589.120    92279679.834
  23384855.663    23384855.663    23384855.663   122888245.936    95757074.756
  20076042.887    20076042.887    20076042.887   105500317.440    82208039.563
  20691421.668    20691421.668    20691421.668   108734154.760    84727912.800
 03  5 13 15 15  0.0000000  0  7  7  8 10 26 27 28 29               
  22963827.607    22963827.607    22963827.607   120675728.569    94033035.249
  21996698.619    21996698.619    21996698.619   115593431.434    90072803.715
  22426808.698    22426808.698    22426808.698   117853675.155    91834032.588
  22019132.964    22019132.964    22019132.964   115711324.713    90164668.608
  23878101.434    23878101.434    23878101.434   125480269.958    97776833.733
  20188813.574    20188813.574    20188813.574   106092931.400    82669816.675
  20415986.949    20415986.949    20415986.949   107286735.543    83600053.670
 03  5 13 15 30  0.0000000  0  7  7  8 10 26 27 28 29               
  22400285.187    22400285.187    22400285.187   117714293.164    91725423.245
  22329527.209    22329527.209    22329527.209   117342457.480    91435681.153
  22909824.142    22909824.142    22909824.142   120391938.445    93811900.087
  21542186.407    21542186.407    21542186.407   113204953.639    88211652.187
  24379100.664    24379100.664    24379100.664   128113038.681    99828341.829
  20389898.304    20389898.304    20389898.304   107149638.788    83493225.030
  20223506.326    20223506.326    20223506.326   106275243.042    82811877.695
 03  5 13 15 45  0.0000000  0  7  7  8  9 10 26 28 29               
  21881660.998    21881660.998    21881660.998   114988904.656    89601743.888
  22681688.683    22681688.683    22681688.683   119193078.516    92877723.519
  24885850.798    24885850.798    24885850.798   130776028.609   101903398.916
  23436726.001    23436726.001    23436726.001   123160826.402    95969475.119
  21118343.654    21118343.654    21118343.654   110977644.939    86476086.966
  20669573.600    20669573.600    20669573.600   108619342.388    84638448.614
  20123143.000    20123143.000    20123143.000   105747830.204    82400906.653
 03  5 13 16  0  0.0000000  0  7  7  8  9 10 26 28 29               
  21424446.057    21424446.057    21424446.057   112586223.924    87729525.136
  23052700.526    23052700.526    23052700.526   121142758.910    94396954.995
  24447593.130    24447593.130    24447593.130   128472969.019   100108807.028
  23990507.698    23990507.698    23990507.698   126070968.862    98237118.594
  20761372.074    20761372.074    20761372.074   109101746.625    85014348.020
  21016684.670    21016684.670    21016684.670   110443423.373    86059810.420
  20121466.328    20121466.328    20121466.328   105739019.233    82394040.961
 03  5 13 16 15  0.0000000  0  6  7  8  9 26 28 29                  
  21044094.926    21044094.926    21044094.926   110587465.240    86172050.836
  23442449.521    23442449.521    23442449.521   123190903.703    95992911.976
  24006967.844    24006967.844    24006967.844   126157467.513    98304520.140
  20484472.035    20484472.035    20484472.035   107646627.099    83880488.648
  21419466.121    21419466.121    21419466.121   112560054.184    87709133.130
  20221781.611    20221781.611    20221781.611   106266179.603    82804815.275
 03  5 13 16 30  0.0000000  0  7  7  8  9 18 26 28 29               
  20754117.886    20754117.886    20754117.886   109063625.610    84984643.332
  23850975.836    23850975.836    23850975.836   125337723.978    97665758.944
  23565683.886    23565683.886    23565683.886   123838504.662    96497536.100
  24671426.526    24671426.526    24671426.526   129649221.454   101025367.367
  20299339.699    20299339.699    20299339.699   106673750.107    83122402.681
  21866257.286    21866257.286    21866257.286   114907957.603    89538668.262
  20423723.043    20423723.043    20423723.043   107327388.991    83631731.681
 03  5 13 16 45  0.0000000  0  7  7  8  9 18 26 28 29               
  20565153.780    20565153.780    20565153.780   108070612.531    84210866.907
  24278255.381    24278255.381    24278255.381   127583093.142    99415397.254
  23126474.061    23126474.061    23126474.061   121530441.454    94699045.288
  24601892.828    24601892.828    24601892.828   129283819.405   100740638.497
  20215178.438    20215178.438    20215178.438   106231479.695    82777776.386
  22346064.162    22346064.162    22346064.162   117429359.754    91503397.211
  20723179.238    20723179.238    20723179.238   108901041.917    84857954.741
 03  5 13 17  0  0.0000000  0  8  5  7  8  9 18 26 28 29            
  24323375.654    24323375.654    24323375.654   127820201.777    99600157.229
  20484159.518    20484159.518    20484159.518   107644984.811    83879208.944
  24723993.102    24723993.102    24723993.102   129925460.676   101240618.708
  22693233.665    22693233.665    22693233.665   119253747.806    92924998.290
  24621025.972    24621025.972    24621025.972   129384364.755   100818985.524
  20237796.777    20237796.777    20237796.777   106350339.869    82870394.703
  22848954.197    22848954.197    22848954.197   120072064.725    93562647.838
  21112554.984    21112554.984    21112554.984   110947225.273    86452383.330
 03  5 13 17 15  0.0000000  0  7  5  7  9 18 26 28 29               
  23856448.389    23856448.389    23856448.389   125366482.438    97688168.134
  20513865.198    20513865.198    20513865.198   107801089.213    84000848.737
  22271113.263    22271113.263    22271113.263   117035490.122    91196485.809
  24724890.898    24724890.898    24724890.898   129930178.626   101244295.033
  20368946.649    20368946.649    20368946.649   107039537.098    83407431.505
  23366294.498    23366294.498    23366294.498   122790706.356    95681069.888
  21581304.993    21581304.993    21581304.993   113410523.196    88371836.257
 03  5 13 17 30  0.0000000  0  6  5  7  9 26 28 29                  
  23414199.599    23414199.599    23414199.599   123042449.361    95877233.268
  20652611.715    20652611.715    20652611.715   108530207.081    84568992.531
  21866556.760    21866556.760    21866556.760   114909531.349    89539894.558
  20606028.894    20606028.894    20606028.894   108285412.704    84378243.666
  23890859.085    23890859.085    23890859.085   125547311.866    97829074.182
  22116634.500    22116634.500    22116634.500   116223698.743    90563921.098
 03  5 13 17 45  0.0000000  0  7  4  5  7  9 26 28 29               
  24546488.210    24546488.210    24546488.210   128992666.172   100513765.849
  22997972.069    22997972.069    22997972.069   120855158.928    94172851.113
  20894613.081    20894613.081    20894613.081   109801932.843    85559947.670
  21487258.521    21487258.521    21487258.521   112916305.650    87986731.675
  20942216.942    20942216.942    20942216.942   110052092.821    85754877.523
  24416832.304    24416832.304    24416832.304   128311319.788    99982846.588
  22704254.281    22704254.281    22704254.281   119311661.534    92970125.871
 03  5 13 18  0  0.0000000  0  6  4  5  7  9 26 29                  
  24107418.527    24107418.527    24107418.527   126685339.415    98715848.895
  22608659.641    22608659.641    22608659.641   118809308.310    92578681.800
  21230593.180    21230593.180    21230593.180   111567520.180    86935730.010
  21142020.665    21142020.665    21142020.665   111102068.472    86573040.368
  21366963.558    21366963.558    21366963.558   112284151.353    87494143.911
  23329094.292    23329094.292    23329094.292   122595217.954    95528741.263
 03  5 13 18 15  0.0000000  0  8  4  5  7  9 24 26 29 30            
  23701839.451    23701839.451    23701839.451   124554006.985    97055070.378
  22246877.452    22246877.452    22246877.452   116908130.075    91097244.214
  21648675.217    21648675.217    21648675.217   113764556.113    88647706.062
  20840494.087    20840494.087    20840494.087   109517535.610    85338339.436
  24760781.790    24760781.790    24760781.790   130118786.536   101391262.236
  21866779.296    21866779.296    21866779.296   114910700.784    89540805.806
  23975920.847    23975920.847    23975920.847   125994314.443    98177387.877
  24673684.214    24673684.214    24673684.214   129661085.685   101034612.222
 03  5 13 18 30  0.0000000  0  8  4  5  7  9 24 26 29 30            
  23344990.101    23344990.101    23344990.101   122678750.994    95593831.944
  21913147.126    21913147.126    21913147.126   115154365.375    89730674.318
  22135366.681    22135366.681    22135366.681   116322137.018    90640626.248
  20592786.255    20592786.255    20592786.255   108215822.167    84324017.273
  24202502.954    24202502.954    24202502.954   127185011.451    99105203.728
  22426140.594    22426140.594    22426140.594   117850164.245    91831296.814
  24629828.909    24629828.909    24629828.909   129430624.502   100855032.079
  24236275.438    24236275.438    24236275.438   127362487.053    99243496.405
 03  5 13 18 45  0.0000000  0  7  4  5  7  9 24 26 30               
  23051201.494    23051201.494    23051201.494   121134881.444    94390816.710
  21608088.309    21608088.309    21608088.309   113551270.472    88481509.459
  22676502.469    22676502.469    22676502.469   119165824.778    92856486.840
  20408932.970    20408932.970    20408932.970   107249666.633    83571168.805
  23652836.477    23652836.477    23652836.477   124296494.619    96854411.391
  23028393.229    23028393.229    23028393.229   121015023.203    94297420.677
  23812480.287    23812480.287    23812480.287   125135428.503    97508126.106
 03  5 13 19  0  0.0000000  0  7  4  5  7  9 24 26 30               
  22833157.903    22833157.903    22833157.903   119989054.640    93497964.654
  21332606.083    21332606.083    21332606.083   112103601.603    87353455.795
  23258048.141    23258048.141    23258048.141   122221867.911    95237819.151
  20298260.654    20298260.654    20298260.654   106668079.687    83117984.172
  23128416.445    23128416.445    23128416.445   121540648.750    94706999.026
  23656558.714    23656558.714    23656558.714   124316055.106    96869653.330
  23402560.335    23402560.335    23402560.335   122981284.616    95829572.428
 03  5 13 19 15  0.0000000  0  6  4  5  7  9 24 30                  
  22701149.865    22701149.865    22701149.865   119295347.718    92957413.806
  21088050.618    21088050.618    21088050.618   110818453.961    86352042.047
  23866717.953    23866717.953    23866717.953   125420449.361    97730220.282
  20268684.713    20268684.713    20268684.713   106512657.068    82996875.637
  22646289.633    22646289.633    22646289.633   119007055.253    92732770.327
  23006930.264    23006930.264    23006930.264   120902234.560    94209533.424
 03  5 13 19 30  0.0000000  0  6  4  5  6  9 24 30                  
  22662409.130    22662409.130    22662409.130   119091763.781    92798776.973
  20876339.342    20876339.342    20876339.342   109705903.696    85485119.763
  24312217.795    24312217.795    24312217.795   127761566.832    99554467.662
  20326023.382    20326023.382    20326023.382   106813973.807    83231667.902
  22223272.561    22223272.561    22223272.561   116784085.536    91000586.132
  22626361.287    22626361.287    22626361.287   118902331.088    92651167.081
 03  5 13 19 45  0.0000000  0  6  4  5  6  9 24 30                  
  22720627.951    22720627.951    22720627.951   119397705.751    93037173.312
  20700022.597    20700022.597    20700022.597   108779352.947    84763132.167
  23725128.143    23725128.143    23725128.143   124676389.888    97150433.679
  20473415.005    20473415.005    20473415.005   107588522.014    83835211.959
  21875152.275    21875152.275    21875152.275   114954701.086    89575091.755
  22262173.326    22262173.326    22262173.326   116988510.436    91159878.262
 03  5 13 20  0  0.0000000  0  6  4  5  6  9 24 30                  
  22875744.407    22875744.407    22875744.407   120212848.229    93672349.269
  20562282.709    20562282.709    20562282.709   108055524.951    84199110.351
  23170228.783    23170228.783    23170228.783   121760374.070    94878213.561
  20710930.901    20710930.901    20710930.901   108836676.472    84807799.848
  21615771.274    21615771.274    21615771.274   113591644.725    88512969.916
  21916402.493    21916402.493    21916402.493   115171472.444    89744004.502
 03  5 13 20 15  0.0000000  0  6  4  5  6  9 24 30                  
  23124034.647    23124034.647    23124034.647   121517622.246    94689056.296
  20466860.348    20466860.348    20466860.348   107554077.059    83808371.734
  22654170.160    22654170.160    22654170.160   119048467.702    92765039.768
  21035440.026    21035440.026    21035440.026   110541983.434    86136610.468
  21456098.220    21456098.220    21456098.220   112752557.163    87859135.452
  21591932.164    21591932.164    21591932.164   113466369.357    88415352.746
 03  5 13 20 30  0.0000000  0  6  4  5  6  9 24 30                  
  23458496.187    23458496.187    23458496.187   123275229.502    96058620.391
  20417893.521    20417893.521    20417893.521   107296754.646    83607860.763
  22182603.995    22182603.995    22182603.995   116570370.779    90834055.152
  21440737.552    21440737.552    21440737.552   112671836.308    87796236.084
  21403410.113    21403410.113    21403410.113   112475679.292    87643386.461
  21292570.313    21292570.313    21292570.313   111893212.212    87189516.009
 03  5 13 20 45  0.0000000  0  6  4  5  6  9 24 30                  
  23869455.450    23869455.450    23869455.450   125434835.005    97741429.874
  20419686.394    20419686.394    20419686.394   107306176.258    83615202.279
  21760059.053    21760059.053    21760059.053   114349882.122    89103804.251
  21917907.327    21917907.327    21917907.327   115179380.400    89750166.546
  21460733.033    21460733.033    21460733.033   112776913.270    87878114.236
  21023060.355    21023060.355    21023060.355   110476927.823    86085917.784
 03  5 13 21  0  0.0000000  0  7  4  5  6  9 24 25 30               
  24345303.641    24345303.641    24345303.641   127935434.127    99689948.670
  20476413.175    20476413.175    20476413.175   107604277.504    83847488.964
  21389873.490    21389873.490    21389873.490   112404543.858    87587956.253
  22455844.790    22455844.790    22455844.790   118006260.848    91952930.531
  21626655.535    21626655.535    21626655.535   113648841.903    88557539.145
  24086105.257    24086105.257    24086105.257   126573337.425    98628574.617
  20789011.010    20789011.010    20789011.010   109246990.214    85127524.842
 03  5 13 21 15  0.0000000  0  7  5  6  9 17 24 25 30               
  20591774.849    20591774.849    20591774.849   108210507.192    84319875.734
  21074190.552    21074190.552    21074190.552   110745618.822    86295287.394
  23041861.808    23041861.808    23041861.808   121085801.063    94352572.257
  23940299.589    23940299.589    23940299.589   125807123.468    98031524.781
  21895559.200    21895559.200    21895559.200   115061940.200    89658654.701
  23571759.235    23571759.235    23571759.235   123870430.837    96522413.639
  20596733.637    20596733.637    20596733.637   108236565.799    84340181.142
 03  5 13 21 30  0.0000000  0  9  5  6  9 10 17 21 24 25 30         
  20768650.194    20768650.194    20768650.194   109139993.404    85044150.704
  20814021.607    20814021.607    20814021.607   109378421.788    85229939.056
  23662299.421    23662299.421    23662299.421   124346222.725    96893160.565
  24555941.739    24555941.739    24555941.739   129042344.803   100552476.470
