     2.10           OBSERVATION DATA    G (GPS)             RINEX VERSION / TYPE
SiGOGbcst v.1                           (27-APR-03 18:53)   PGM / RUN BY / DATE 
SIMULATED RINEX from BROADCASTED ORBITS                     COMMENT             
vbca                                                        MARKER NAME         
elsa mohino         UCM                                     OBSERVER / AGENCY   
X124A123            XX                  ZZZ                 REC # / TYPE / VERS 
234                 YY                                      ANT # / TYPE        
  2319240.7994 -4411743.9232 -3966484.1523                  APPROX POSITION XYZ 
        1.0707        0.0000        0.0000                  ANTENNA: DELTA H/E/N
     1     1                                                WAVELENGTH FACT L1/2
     5    C1    P1    P2    L1    L2                        # / TYPES OF OBSERV 
   900.000                                                  INTERVAL            
  2003     5    13     0     0    0.0000000     GPS         TIME OF FIRST OBS   
                                                            END OF HEADER       
 03  5 13  0  0  0.0000000  0  9  6 10 15 16 17 21 25 30 18         
  20969647.578    20969647.578    20969647.578   110196241.786    85867201.392
  23919456.058    23919456.058    23919456.058   125697589.974    97946174.005
  21689972.963    21689972.963    21689972.963   113981577.233    88816813.428
  22491365.407    22491365.407    22491365.407   118192922.950    92098381.520
  19915328.969    19915328.969    19915328.969   104655760.100    81549942.935
  20159927.464    20159927.464    20159927.464   105941133.867    82551532.883
  23556573.062    23556573.062    23556573.062   123790626.959    96460228.799
  22524242.816    22524242.816    22524242.816   118365694.901    92233009.014
  23533789.565    23533789.565    23533789.565   123670898.874    96366934.187
 03  5 13  0 15  0.0000000  0 11  2  6 10 15 16 17 21 23 25 30 18   
  23519995.268    23519995.268    23519995.268   123598409.354    96310448.847
  21230989.531    21230989.531    21230989.531   111569603.018    86937353.001
  24315998.674    24315998.674    24315998.674   127781435.486    99569949.729
  21326016.770    21326016.770    21326016.770   112068974.530    87326473.659
  22032325.510    22032325.510    22032325.510   115780652.010    90218689.878
  20071566.156    20071566.156    20071566.156   105476792.060    82189708.098
  20164962.570    20164962.570    20164962.570   105967593.528    82572150.801
  24547014.553    24547014.553    24547014.553   128995432.124   100515921.135
  24012079.005    24012079.005    24012079.005   126184326.845    98325449.490
  23081328.264    23081328.264    23081328.264   121293198.689    94514180.797
  22931641.627    22931641.627    22931641.627   120506590.102    93901239.041
 03  5 13  0 30  0.0000000  0 10  2  6 15 16 17 21 23 25 30 18      
  22970293.640    22970293.640    22970293.640   120709707.802    94059512.573
  21534030.032    21534030.032    21534030.032   113162091.599    88178253.194
  21028509.079    21028509.079    21028509.079   110505561.061    86108229.398
  21637987.221    21637987.221    21637987.221   113708390.315    88603940.505
  20310176.646    20310176.646    20310176.646   106730698.648    83166778.167
  20247914.340    20247914.340    20247914.340   106403508.021    82911824.432
  23862861.644    23862861.644    23862861.644   125400184.321    97714429.341
  24494516.978    24494516.978    24494516.978   128719555.505   100300952.341
  23676419.200    23676419.200    23676419.200   124420422.665    96950978.700
  22362080.095    22362080.095    22362080.095   117513524.050    91568979.779
 03  5 13  0 45  0.0000000  0  9  2  6 15 16 17 21 23 30 18         
  22486111.367    22486111.367    22486111.367   118165312.784    92076867.104
  21877975.095    21877975.095    21877975.095   114969535.105    89586650.731
  20798603.004    20798603.004    20798603.004   109297396.483    85166802.454
  21320838.584    21320838.584    21320838.584   112041762.979    87305269.853
  20619764.922    20619764.922    20619764.922   108357596.019    84434490.404
  20401432.274    20401432.274    20401432.274   107210250.210    83540454.709
  23188411.844    23188411.844    23188411.844   121855926.700    94952670.156
  24298318.684    24298318.684    24298318.684   127688526.511    99497553.125
  21840876.482    21840876.482    21840876.482   114774580.578    89434738.112
 03  5 13  1  0  0.0000000  0  9  2  3  6 15 16 17 21 23 18         
  22081688.742    22081688.742    22081688.742   116040057.545    90420824.061
  24507855.443    24507855.443    24507855.443   128789649.612   100355571.126
  22261751.004    22261751.004    22261751.004   116986291.119    91158148.924
  20635521.266    20635521.266    20635521.266   108440396.165    84499009.999
  21091870.669    21091870.669    21091870.669   110838528.464    86367684.517
  20988196.548    20988196.548    20988196.548   110293717.281    85943156.323
  20616998.680    20616998.680    20616998.680   108343059.319    84423163.106
  22539411.577    22539411.577    22539411.577   118445407.278    92295122.554
  21383168.478    21383168.478    21383168.478   112369308.782    87560500.350
 03  5 13  1 15  0.0000000  0  9  2  3  6 15 16 17 21 23 18         
  21769672.891    21769672.891    21769672.891   114400403.181    89143171.310
  23989582.505    23989582.505    23989582.505   126066106.940    98233330.083
  22683844.776    22683844.776    22683844.776   119204408.861    92886552.360
  20536755.714    20536755.714    20536755.714   107921379.686    84094581.574
  20959705.645    20959705.645    20959705.645   110143996.575    85826490.838
  21403399.103    21403399.103    21403399.103   112475621.434    87643341.377
  20885567.983    20885567.983    20885567.983   109754400.532    85522909.505
  21932029.079    21932029.079    21932029.079   115253590.708    89807992.759
  21002708.341    21002708.341    21002708.341   110369977.268    86002579.689
 03  5 13  1 30  0.0000000  0 10  2  3  6 15 16 17 21 23 26 18      
  21560130.649    21560130.649    21560130.649   113299251.268    88285130.858
  23473536.774    23473536.774    23473536.774   123354268.320    96120209.081
  23142166.355    23142166.355    23142166.355   121612905.015    94763302.609
  20498413.506    20498413.506    20498413.506   107719890.023    83937576.642
  20929808.336    20929808.336    20929808.336   109986885.156    85704066.355
  21853975.964    21853975.964    21853975.964   114843418.820    89488378.301
  21198142.120    21198142.120    21198142.120   111396988.708    86802848.344
  21382315.184    21382315.184    21382315.184   112364824.692    87557006.254
  24808613.235    24808613.235    24808613.235   130370142.476   101587124.007
  20711055.235    20711055.235    20711055.235   108837329.851    84808308.975
 03  5 13  1 45  0.0000000  0 10  2  3  6 15 16 17 21 23 26 18      
  21459648.384    21459648.384    21459648.384   112771213.401    87873672.780
  22966033.619    22966033.619    22966033.619   120687321.240    94042068.499
  23633944.033    23633944.033    23633944.033   124197214.156    96777049.991
  20515605.596    20515605.596    20515605.596   107810235.066    84007975.376
  21003908.021    21003908.021    21003908.021   110376281.629    86007492.178
  22329655.378    22329655.378    22329655.378   117343131.012    91436205.984
  21546237.482    21546237.482    21546237.482   113226242.182    88228240.661
  20905512.673    20905512.673    20905512.673   109859210.585    85604579.677
  24679947.007    24679947.007    24679947.007   129693996.884   101060257.312
  20516805.770    20516805.770    20516805.770   107816542.023    84012889.888
 03  5 13  2  0  0.0000000  0 11  2  3  6 15 16 17 21 22 23 26 18   
  21470661.994    21470661.994    21470661.994   112829090.312    87918771.672
  22474701.524    22474701.524    22474701.524   118105353.654    92030145.705
  24155660.193    24155660.193    24155660.193   126938851.081    98913390.453
  20582883.812    20582883.812    20582883.812   108163784.478    84283468.424
  21179735.224    21179735.224    21179735.224   111300259.817    86727475.182
  22821557.079    22821557.079    22821557.079   119928091.898    93450461.219
  21922225.411    21922225.411    21922225.411   115202072.085    89767848.378
  24743575.860    24743575.860    24743575.860   130028368.764   101320806.829
  20515238.845    20515238.845    20515238.845   107808307.777    84006473.592
  24629347.084    24629347.084    24629347.084   129428092.494   100853059.086
  20424982.198    20424982.198    20424982.198   107334005.895    83636887.711
 03  5 13  2 15  0.0000000  0 12  2  3  6 15 16 17 21 22 23 26 31 18
  21591150.286    21591150.286    21591150.286   113462260.560    88412151.086
  22008425.724    22008425.724    22008425.724   115655057.787    90120824.250
  24703030.492    24703030.492    24703030.492   129815301.417   101154780.325
  20694662.650    20694662.650    20694662.650   108751186.236    84741184.080
  21451121.087    21451121.087    21451121.087   112726402.153    87838754.924
  23322300.322    23322300.322    23322300.322   122559515.401    95500921.092
  22319545.834    22319545.834    22319545.834   117290005.000    91394809.091
  24308820.574    24308820.574    24308820.574   127743714.315    99540556.609
  20222613.888    20222613.888    20222613.888   106270553.249    82808223.311
  24661570.803    24661570.803    24661570.803   129597429.280   100985009.829
  24624219.837    24624219.837    24624219.837   129401148.629   100832063.867
  20436694.163    20436694.163    20436694.163   107395552.687    83684846.250
 03  5 13  2 30  0.0000000  0 11  2  3 15 16 17 21 22 23 26 31 18   
  21814750.880    21814750.880    21814750.880   114637289.612    89327758.140
  21577189.598    21577189.598    21577189.598   113388896.650    88354984.402
  20845592.384    20845592.384    20845592.384   109544327.341    85359216.110
  21808431.984    21808431.984    21808431.984   114604083.590    89301883.317
  23826022.418    23826022.418    23826022.418   125206592.882    97563578.869
  22732806.933    22732806.933    22732806.933   119461706.733    93087044.208
  23938338.248    23938338.248    23938338.248   125796816.552    98023493.417
  20035450.773    20035450.773    20035450.773   105287004.441    82041821.642
  24778247.195    24778247.195    24778247.195   130210567.859   101462780.150
  24076067.020    24076067.020    24076067.020   126520586.134    98587469.715
  20549149.823    20549149.823    20549149.823   107986511.169    84145333.378
 03  5 13  2 45  0.0000000  0 11  2  3 14 15 16 17 21 22 23 31 18   
  22131270.235    22131270.235    22131270.235   116300610.049    90623851.987
  21191790.702    21191790.702    21191790.702   111363611.782    86776840.349
  24366604.367    24366604.367    24366604.367   128047370.197    99777171.582
  21030857.847    21030857.847    21030857.847   110517903.920    86117847.211
  22239250.240    22239250.240    22239250.240   116868048.806    91066012.056
  24328286.688    24328286.688    24328286.688   127846009.435    99620267.092
  23157789.447    23157789.447    23157789.447   121695004.918    94827276.559
  23641880.103    23641880.103    23641880.103   124238918.485    96809546.871
  19957648.248    19957648.248    19957648.248   104878149.412    81723233.308
  23533632.569    23533632.569    23533632.569   123670073.854    96366291.315
  20756023.978    20756023.978    20756023.978   109073642.191    84992448.460
 03  5 13  3  0  0.0000000  0 11  2  3 14 15 16 17 21 22 23 31 18   
  22527480.591    22527480.591    22527480.591   118382709.523    92246267.161
  20863414.631    20863414.631    20863414.631   109637983.881    85432195.232
  23794895.423    23794895.423    23794895.423   125043019.419    97436119.028
  21246388.173    21246388.173    21246388.173   111650523.428    87000407.866
  22729180.314    22729180.314    22729180.314   119442648.722    93072193.809
  24825941.687    24825941.687    24825941.687   130461204.106   101658081.121
  23591375.507    23591375.507    23591375.507   123973515.042    96602738.993
  23427166.997    23427166.997    23427166.997   123110593.497    95930332.595
  19988915.983    19988915.983    19988915.983   105042462.469    81851269.456
  23006062.683    23006062.683    23006062.683   120897675.391    94205980.824
  21048118.013    21048118.013    21048118.013   110608606.705    86188524.705
 03  5 13  3 15  0.0000000  0 10  2  3 14 15 16 21 22 23 31 18      
  22988056.273    22988056.273    22988056.273   120803051.068    94132247.586
  20603064.822    20603064.822    20603064.822   108269836.401    84366106.286
  23237237.907    23237237.907    23237237.907   122112509.393    95152604.722
  21488979.441    21488979.441    21488979.441   112925349.146    87993778.555
  23262664.584    23262664.584    23262664.584   122246127.482    95256722.714
  24031420.639    24031420.639    24031420.639   126285967.818    98404650.248
  23299152.558    23299152.558    23299152.558   122437873.080    95406134.867
  20124903.350    20124903.350    20124903.350   105757080.906    82408114.992
  22503754.618    22503754.618    22503754.618   118258028.694    92149113.268
  21414195.228    21414195.228    21414195.228   112532355.454    87687549.704
 03  5 13  3 30  0.0000000  0 10  2  3 14 15 16 21 22 23 31 18      
  23496508.003    23496508.003    23496508.003   123474982.943    96214272.423
  20420871.606    20420871.606    20420871.606   107312404.589    83620055.524
  22709674.064    22709674.064    22709674.064   119340142.686    92992318.976
  21756321.075    21756321.075    21756321.075   114330238.915    89088497.856
  23823720.363    23823720.363    23823720.363   125194495.501    97554152.338
  24476586.398    24476586.398    24476586.398   128625329.671   100227529.614
  23259761.545    23259761.545    23259761.545   122230871.909    95244835.254
  20357719.799    20357719.799    20357719.799   106980539.603    83361459.431
  22038132.254    22038132.254    22038132.254   115811166.656    90242467.524
  21841862.211    21841862.211    21841862.211   114779760.618    89438774.508
 03  5 13  3 45  0.0000000  0 10  2  3 14 15 16 21 22 23 31 18      
  24036009.136    24036009.136    24036009.136   126310080.533    98423439.376
  20325334.773    20325334.773    20325334.773   106810355.143    83228848.163
  22228348.025    22228348.025    22228348.025   116810757.279    91021369.308
  22046952.553    22046952.553    22046952.553   115857517.640    90278585.174
  24396555.163    24396555.163    24396555.163   128204762.693    99899815.085
  24926145.768    24926145.768    24926145.768   130987780.106   102068400.082
  23307505.608    23307505.608    23307505.608   122481768.654    95440339.211
  20676744.739    20676744.739    20676744.739   108657026.978    84667813.230
  21621286.764    21621286.764    21621286.764   113620628.821    88535554.925
  22318382.617    22318382.617    22318382.617   117283892.253    91390045.912
 03  5 13  4  0  0.0000000  0  9  2  3 11 14 15 22 23 31 18         
  24590061.342    24590061.342    24590061.342   129221644.527   100692190.540
  20322587.674    20322587.674    20322587.674   106795919.040    83217599.252
  24360329.325    24360329.325    24360329.325   128014394.629    99751476.334
  21808860.643    21808860.643    21808860.643   114606336.208    89303638.604
  22360150.876    22360150.876    22360150.876   117503385.936    91561079.950
  23437522.961    23437522.961    23437522.961   123165014.455    95972738.537
  21069586.748    21069586.748    21069586.748   110721425.669    86276435.586
  21265465.036    21265465.036    21265465.036   111750773.020    87078524.431
  22831355.948    22831355.948    22831355.948   119979585.302    93490585.950
 03  5 13  4 15  0.0000000  0  8  3 11 14 15 22 23 31 18            
  20415786.736    20415786.736    20415786.736   107285683.416    83599233.831
  23871207.516    23871207.516    23871207.516   125444042.174    97748604.292
  21465502.609    21465502.609    21465502.609   112801977.561    87897644.853
  22695762.386    22695762.386    22695762.386   119267036.325    92935352.980
  23641841.377    23641841.377    23641841.377   124238714.978    96809388.295
  21523040.523    21523040.523    21523040.523   113104341.340    88133252.992
  20982411.077    20982411.077    20982411.077   110263314.426    85919465.786
  23369228.163    23369228.163    23369228.163   122806122.870    95693082.756
 03  5 13  4 30  0.0000000  0  8  3 11 14 15 22 23 31 18            
  20604725.430    20604725.430    20604725.430   108278562.955    84372906.199
  23386706.224    23386706.224    23386706.224   122897970.700    95764652.494
  21210420.818    21210420.818    21210420.818   111461513.702    86853127.560
  23054006.209    23054006.209    23054006.209   121149620.321    94402301.549
  23909856.151    23909856.151    23909856.151   125647142.122    97906863.991
  22023928.507    22023928.507    22023928.507   115736525.462    90184305.554
  20782593.104    20782593.104    20782593.104   109213263.890    85101244.590
  23921636.749    23921636.749    23921636.749   125709049.582    97955103.571
 03  5 13  4 45  0.0000000  0  8  3 11 14 15 22 23 31 18            
  20885736.278    20885736.278    20885736.278   109755284.928    85523598.645
  22910900.838    22910900.838    22910900.838   120397596.521    93816308.977
  21052812.040    21052812.040    21052812.040   110633273.983    86207745.961
  23435247.026    23435247.026    23435247.026   123153054.336    95963418.963
  24228951.622    24228951.622    24228951.622   127324000.140    99213506.603
  22559763.108    22559763.108    22559763.108   118552355.295    92378458.672
  20674386.774    20674386.774    20674386.774   108644635.788    84658157.757
  24479610.808    24479610.808    24479610.808   128641223.053   100239914.067
 03  5 13  5  0  0.0000000  0  6  3 11 14 15 23 31                  
  21251887.852    21251887.852    21251887.852   111679424.436    87022928.132
  22448945.596    22448945.596    22448945.596   117970005.339    91924679.485
  20998265.309    20998265.309    20998265.309   110346628.977    85984386.216
  23839765.066    23839765.066    23839765.066   125278810.984    97619852.715
  23119213.326    23119213.326    23119213.326   121492286.034    94669313.792
  20663317.574    20663317.574    20663317.574   108586466.750    84612831.234
 03  5 13  5 15  0.0000000  0  7  3 11 14 15 20 23 31               
  21693442.548    21693442.548    21693442.548   113999810.025    88831020.799
  22007118.047    22007118.047    22007118.047   115648185.898    90115469.531
  21048373.119    21048373.119    21048373.119   110609947.296    86189569.322
  24267538.309    24267538.309    24267538.309   127526774.549    99371512.635
  24473351.247    24473351.247    24473351.247   128608328.838   100214282.211
  23692379.815    23692379.815    23692379.815   124504296.263    97016334.750
  20751479.544    20751479.544    20751479.544   109049761.029    84973839.763
 03  5 13  5 30  0.0000000  0  7  3 11 14 15 20 23 31               
  22198458.551    22198458.551    22198458.551   116653687.033    90898976.909
  21592790.115    21592790.115    21592790.115   113470877.920    88418865.911
  21200693.948    21200693.948    21200693.948   111410398.655    86813297.653
  24718038.526    24718038.526    24718038.526   129894169.168   101216235.715
  23999934.071    23999934.071    23999934.071   126120504.786    98275718.015
  24270932.041    24270932.041    24270932.041   127544608.731    99385409.401
  20937229.156    20937229.156    20937229.156   110025881.828    85734453.373
 03  5 13  5 45  0.0000000  0  6  3 11 14 20 25 31                  
  22753480.645    22753480.645    22753480.645   119570347.823    93171699.602
  21214309.030    21214309.030    21214309.030   111481946.394    86869049.138
  21449078.805    21449078.805    21449078.805   112715669.888    87830392.121
  23553114.845    23553114.845    23553114.845   123772453.906    96446067.979
  24262503.447    24262503.447    24262503.447   127500316.170    99350895.717
  21215210.620    21215210.620    21215210.620   111486684.281    86872740.998
 03  5 13  6  0  0.0000000  0  6  3 11 14 20 25 31                  
  23344206.916    23344206.916    23344206.916   122674635.329    95590624.932
  20880767.461    20880767.461    20880767.461   109729173.619    85503252.170
  21784304.282    21784304.282    21784304.282   114477291.660    89203084.410
  23134209.792    23134209.792    23134209.792   121571092.994    94730721.814
  23755448.051    23755448.051    23755448.051   124835722.080    97274588.634
  21576696.498    21576696.498    21576696.498   113386305.392    88352965.240
 03  5 13  6 15  0.0000000  0  6  3 11 14 20 25 31                  
  23956074.622    23956074.622    23956074.622   125890021.826    98096120.904
  20601651.375    20601651.375    20601651.375   108262408.687    84360318.457
  22194896.950    22194896.950    22194896.950   116634970.694    90884392.748
  22743971.428    22743971.428    22743971.428   119520376.550    93132760.948
  23275434.705    23275434.705    23275434.705   122313234.921    95309014.224
  22010176.013    22010176.013    22010176.013   115664255.618    90127991.390
 03  5 13  6 30  0.0000000  0  7  1  3 11 14 20 25 31               
  24224969.101    24224969.101    24224969.101   127303071.851    99197198.845
  24574765.421    24574765.421    24574765.421   129141263.919   100629556.301
  20386365.411    20386365.411    20386365.411   107131073.310    83478758.423
  22668019.180    22668019.180    22668019.180   119121244.793    92821749.189
  22382761.998    22382761.998    22382761.998   117622208.184    91653668.715
  22839042.788    22839042.788    22839042.788   120019979.919    93522062.275
  22502085.864    22502085.864    22502085.864   118249259.332    92142279.999
 03  5 13  6 45  0.0000000  0  6  1 11 14 20 25 31                  
  23591602.943    23591602.943    23591602.943   123974710.226    96603670.306
  20243655.274    20243655.274    20243655.274   106381126.478    82894384.269
  23190303.216    23190303.216    23190303.216   121865865.927    94960415.008
  22050753.495    22050753.495    22050753.495   115877491.725    90294149.396
  22462489.017    22462489.017    22462489.017   118041176.497    91980137.530
  23037577.168    23037577.168    23037577.168   121063285.128    94335027.372
 03  5 13  7  0  0.0000000  0  7  1  7 11 14 20 25 31               
  22988815.798    22988815.798    22988815.798   120807042.399    94135357.713
  24122222.908    24122222.908    24122222.908   126763136.962    98776470.360
  20180971.360    20180971.360    20180971.360   106051720.287    82637704.120
  23748558.287    23748558.287    23748558.287   124799516.126    97246376.202
  21748139.830    21748139.830    21748139.830   114287246.182    89054997.025
  22160827.714    22160827.714    22160827.714   116455935.650    90744884.922
  23601231.928    23601231.928    23601231.928   124025310.884    96643099.390
 03  5 13  7 15  0.0000000  0  7  1  7 11 14 20 25 31               
  22426655.747    22426655.747    22426655.747   117852871.392    91833406.279
  23836249.744    23836249.744    23836249.744   125260337.842    97605458.059
  20203841.579    20203841.579    20203841.579   106171904.099    82731353.843
  24330316.745    24330316.745    24330316.745   127856677.457    99628579.836
  21475344.748    21475344.748    21475344.748   112853698.351    87937946.767
  21947063.786    21947063.786    21947063.786   115332598.626    89869557.371
  24177691.053    24177691.053    24177691.053   127054624.032    99003603.142
 03  5 13  7 30  0.0000000  0  5  1  7 11 20 25                     
  21914231.926    21914231.926    21914231.926   115160066.038    89735116.393
  23642673.443    23642673.443    23642673.443   124243087.515    96812795.466
  20315336.410    20315336.410    20315336.410   106757813.390    83187906.538
  21233209.219    21233209.219    21233209.219   111581267.557    86946442.253
  21831274.656    21831274.656    21831274.656   114724122.641    89395420.240
 03  5 13  7 45  0.0000000  0  6  1  7 11 13 20 25                  
  21459383.264    21459383.264    21459383.264   112769820.186    87872587.158
  23545820.535    23545820.535    23545820.535   123734122.048    96416198.998
  20515703.659    20515703.659    20515703.659   107810750.391    84008376.928
  24463363.149    24463363.149    24463363.149   128555841.029   100173382.620
  21023140.041    21023140.041    21023140.041   110477346.576    86086244.085
  21819869.133    21819869.133    21819869.133   114664186.213    89348716.530
 03  5 13  8  0  0.0000000  0  6  1  7 11 13 20 25                  
  21068378.190    21068378.190    21068378.190   110715074.654    86271486.743
  23546267.405    23546267.405    23546267.405   123736470.366    96418028.856
  20802229.622    20802229.622    20802229.622   109316454.489    85181652.849
  23913344.054    23913344.054    23913344.054   125665471.176    97921146.371
  20847204.773    20847204.773    20847204.773   109552800.503    85365818.574
  21915113.497    21915113.497    21915113.497   115164698.724    89738726.279
 03  5 13  8 15  0.0000000  0  6  1  7 11 13 20 25                  
  20745677.977    20745677.977    20745677.977   109019273.589    84950083.316
  23640728.179    23640728.179    23640728.179   124232865.083    96804829.935
  21169340.272    21169340.272    21169340.272   111245633.976    86684909.591
  23396419.257    23396419.257    23396419.257   122949013.033    95804425.740
  20708159.862    20708159.862    20708159.862   108822114.564    84796452.907
  22115019.119    22115019.119    22115019.119   116215209.858    90557306.383
 03  5 13  8 30  0.0000000  0  7  1  4  7 11 13 20 25               
  20493798.171    20493798.171    20493798.171   107695636.274    83918677.616
  24660079.726    24660079.726    24660079.726   129589593.618   100978904.118
  23822258.088    23822258.088    23822258.088   125186811.194    97548164.567
  21608915.375    21608915.375    21608915.375   113555616.733    88484896.156
  22917778.018    22917778.018    22917778.018   120433736.345    93844469.880
  20609401.454    20609401.454    20609401.454   108303135.627    84392053.735
  22413616.749    22413616.749    22413616.749   117784350.995    91780013.762
 03  5 13  8 45  0.0000000  0  7  1  4  7 11 13 20 25               
  20313294.453    20313294.453    20313294.453   106747082.834    83179545.065
  24061424.284    24061424.284    24061424.284   126443638.037    98527510.159
  24080735.523    24080735.523    24080735.523   126545119.283    98606586.454
  22110755.531    22110755.531    22110755.531   116192804.552    90539847.703
  22481458.671    22481458.671    22481458.671   118140862.701    92057815.092
  20554833.874    20554833.874    20554833.874   108016381.058    84168608.617
  22801564.157    22801564.157    22801564.157   119823028.384    93368593.546
 03  5 13  9  0  0.0000000  0  7  1  4  7 11 13 20 25               
  20202884.176    20202884.176    20202884.176   106166872.912    82727433.438
  23498418.509    23498418.509    23498418.509   123485022.720    96222095.626
  24403540.708    24403540.708    24403540.708   128241471.979    99928419.724
  22663128.518    22663128.518    22663128.518   119095544.191    92801722.746
  22090307.100    22090307.100    22090307.100   116085347.322    90456114.796
  20548657.324    20548657.324    20548657.324   107983923.069    84143316.677
  23266974.319    23266974.319    23266974.319   122268775.293    95274370.358
 03  5 13  9 15  0.0000000  0  8  1  2  4 11 13 16 20 25            
  20159695.178    20159695.178    20159695.178   105939913.196    82550581.711
  24516308.496    24516308.496    24516308.496   128834070.705   100390184.965
  22985211.682    22985211.682    22985211.682   120788102.642    94120599.461
  23253326.464    23253326.464    23253326.464   122197055.331    95218484.673
  21746000.250    21746000.250    21746000.250   114276002.613    89046235.803
  24631953.804    24631953.804    24631953.804   129441790.900   100863733.169
  20595084.988    20595084.988    20595084.988   108227902.090    84333430.200
  23796328.927    23796328.927    23796328.927   125050552.533    97441988.987
 03  5 13  9 30  0.0000000  0  9  1  2  4 11 13 16 20 25 27         
  20179614.430    20179614.430    20179614.430   106044589.572    82632147.718
  24012169.368    24012169.368    24012169.368   126184801.706    98325819.511
  22535992.975    22535992.975    22535992.975   118427442.403    92281123.950
  23868182.164    23868182.164    23868182.164   125428143.842    97736215.981
  21449144.709    21449144.709    21449144.709   112716016.216    87830661.987
  24292004.970    24292004.970    24292004.970   127655347.720    99471699.522
  20698006.996    20698006.996    20698006.996   108768760.893    84754878.618
  24375356.154    24375356.154    24375356.154   128093361.148    99813008.687
  24339948.057    24339948.057    24339948.057   127907290.343    99668018.449
 03  5 13  9 45  0.0000000  0  8  1  2  4 11 13 16 20 27            
  20257694.814    20257694.814    20257694.814   106454904.759    82951873.838
  23539890.344    23539890.344    23539890.344   123702958.684    96391915.858
  22164235.366    22164235.366    22164235.366   116473842.982    90758838.687
  24494516.361    24494516.361    24494516.361   128719552.263   100300949.815
  21199434.854    21199434.854    21199434.854   111403782.071    86808141.874
  24009452.043    24009452.043    24009452.043   126170522.067    98314692.520
  20860632.989    20860632.989    20860632.989   109623366.254    85420804.873
  23640844.674    23640844.674    23640844.674   124233477.269    96805306.963
 03  5 13 10  0  0.0000000  0  9  1  2  4 13 16 20 22 24 27         
  20388574.538    20388574.538    20388574.538   107142682.351    83487804.429
  23117131.123    23117131.123    23117131.123   121481343.983    94660787.519
  21881814.333    21881814.333    21881814.333   114989710.437    89602371.769
  20995866.976    20995866.976    20995866.976   110334025.652    85974565.443
  23797586.285    23797586.285    23797586.285   125057159.994    97447137.658
  21085143.979    21085143.979    21085143.979   110803179.470    86340139.846
  24450007.136    24450007.136    24450007.136   128485654.706   100118691.979
  24163386.654    24163386.654    24163386.654   126979453.908    98945029.019
  22964430.116    22964430.116    22964430.116   120678894.775    94035502.422
 03  5 13 10 15  0.0000000  0  9  1  2  4 13 16 20 22 24 27         
  20566864.918    20566864.918    20566864.918   108079604.621    84217873.731
  22761110.686    22761110.686    22761110.686   119610443.959    93202943.345
  21698083.696    21698083.696    21698083.696   114024199.422    88850025.524
  20836987.583    20836987.583    20836987.583   109499108.807    85323980.888
  23667485.487    23667485.487    23667485.487   124373475.686    96914396.638
  21372391.282    21372391.282    21372391.282   112312674.235    87516369.534
  23997130.454    23997130.454    23997130.454   126105771.680    98264237.672
  23666507.382    23666507.382    23666507.382   124368335.710    96910391.462
  22323977.300    22323977.300    22323977.300   117313292.511    91412955.203
 03  5 13 10 30  0.0000000  0 10  1  2  4  8 13 16 20 22 24 27      
  20787473.655    20787473.655    20787473.655   109238911.359    85121229.630
  22487676.036    22487676.036    22487676.036   118173535.175    92083274.162
  21619030.602    21619030.602    21619030.602   113608772.610    88526316.319
  23795422.567    23795422.567    23795422.567   125045789.579    97438277.594
  20721154.095    20721154.095    20721154.095   108890399.719    84849662.119
  23627314.299    23627314.299    23627314.299   124162374.668    96749902.339
  21721673.866    21721673.866    21721673.866   114148166.603    88946623.327
  23558646.522    23558646.522    23558646.522   123801523.065    96468719.271
  23243514.058    23243514.058    23243514.058   122145490.789    95178304.511
  21732445.793    21732445.793    21732445.793   114204773.461    88990732.567
 03  5 13 10 45  0.0000000  0 10  1  2  4  8 13 16 20 22 24 27      
  21045842.814    21045842.814    21045842.814   110596650.454    86179208.146
  22310275.516    22310275.516    22310275.516   117241289.150    91356848.688
  21646648.031    21646648.031    21646648.031   113753903.179    88639405.074
  23189512.877    23189512.877    23189512.877   121861712.668    94957178.702
  20646784.173    20646784.173    20646784.173   108499583.141    84545129.720
  23681784.447    23681784.447    23681784.447   124448617.228    96972948.489
  22130615.913    22130615.913    22130615.913   116297171.564    90621172.647
  23148157.691    23148157.691    23148157.691   121644389.698    94787836.129
  22907134.450    22907134.450    22907134.450   120377804.018    93800886.248
  21201991.695    21201991.695    21201991.695   111417218.362    86818611.710
 03  5 13 11  0  0.0000000  0 10  1  2  4  8 13 16 20 22 24 27      
  21338093.358    21338093.358    21338093.358   112132437.428    87375925.269
  22238961.296    22238961.296    22238961.296   116866530.395    91064828.879
  21778641.668    21778641.668    21778641.668   114447534.423    89179896.953
  22622505.461    22622505.461    22622505.461   118882068.585    92635378.119
  20612571.569    20612571.569    20612571.569   108319794.694    84405034.826
  23831862.190    23831862.190    23831862.190   125237281.091    97587491.759
  22595152.781    22595152.781    22595152.781   118738329.282    92523373.466
  22778997.167    22778997.167    22778997.167   119704438.051    93276185.494
  22667667.940    22667667.940    22667667.940   119119399.014    92820310.920
  20743420.354    20743420.354    20743420.354   109007409.700    84940838.727
 03  5 13 11 15  0.0000000  0 10  1  2  4  8 13 16 20 22 24 27      
  21661078.424    21661078.424    21661078.424   113829735.406    88698495.121
  22279580.265    22279580.265    22279580.265   117079984.517    91231156.767
  22008528.013    22008528.013    22008528.013   115655595.319    90121243.106
  22104199.794    22104199.794    22104199.794   116158353.922    90513003.056
  20617648.908    20617648.908    20617648.908   108346476.290    84425825.681
  24074771.041    24074771.041    24074771.041   126513775.718    98582162.897
  23109619.280    23109619.280    23109619.280   121441868.982    94630027.778
  22463702.747    22463702.747    22463702.747   118047554.691    91985107.551
  22532118.962    22532118.962    22532118.962   118407084.327    92265260.515
  20365626.569    20365626.569    20365626.569   107022089.960    83393836.332
 03  5 13 11 30  0.0000000  0 10  1  2  4  8 13 16 20 22 24 27      
  22012354.801    22012354.801    22012354.801   115675705.226    90136913.163
  22433305.419    22433305.419    22433305.419   117887815.654    91860635.575
  22326101.265    22326101.265    22326101.265   117324454.022    91421652.485
  21643062.476    21643062.476    21643062.476   113735060.960    88624722.826
  20661685.630    20661685.630    20661685.630   108577890.826    84606148.696
  24404294.524    24404294.524    24404294.524   128245433.309    99931506.475
  23666924.682    23666924.682    23666924.682   124370528.636    96912100.236
  22213444.419    22213444.419    22213444.419   116732438.301    90960341.533
  22503523.968    22503523.968    22503523.968   118256816.620    92148168.795
  20075087.980    20075087.980    20075087.980   105495299.370    82204129.379
 03  5 13 11 45  0.0000000  0 10  1  2  4  8 10 13 20 22 24 27      
  22390087.676    22390087.676    22390087.676   117660704.882    91683666.142
  22696607.752    22696607.752    22696607.752   119271478.753    92938814.613
  22718174.096    22718174.096    22718174.096   119384810.656    93027125.186
  21245877.928    21245877.928    21245877.928   111647842.073    86998318.498
  24677097.529    24677097.529    24677097.529   129679022.776   101048589.176
  20744911.427    20744911.427    20744911.427   109015245.341    84946944.422
  24258787.122    24258787.122    24258787.122   127480786.751    99335677.987
  22037450.217    22037450.217    22037450.217   115807582.527    90239674.697
  22580592.681    22580592.681    22580592.681   118661815.440    92463752.291
  19875489.752    19875489.752    19875489.752   104446403.602    81386808.002
 03  5 13 12  0  0.0000000  0  9  1  2  4  8 10 13 22 24 27         
  22792903.717    22792903.717    22792903.717   119777517.465    93333130.492
  23061673.340    23061673.340    23061673.340   121189911.366    94433697.169
  23169463.133    23169463.133    23169463.133   121756350.552    94875078.352
  20917466.204    20917466.204    20917466.204   109922026.815    85653527.388
  24072238.017    24072238.017    24072238.017   126500464.587    98571790.587
  20868064.742    20868064.742    20868064.742   109662420.380    85451236.659
  21942493.647    21942493.647    21942493.647   115308582.384    89850843.416
  22757734.221    22757734.221    22757734.221   119592700.516    93189117.285
  19767550.705    19767550.705    19767550.705   103879180.082    80944815.648
 03  5 13 12 15  0.0000000  0 10  1  2  4  8 10 13 22 24 27 28      
  23219711.645    23219711.645    23219711.645   122020408.264    95080837.609
  23517180.361    23517180.361    23517180.361   123583616.918    96298922.274
  23663487.941    23663487.941    23663487.941   124352468.440    96898027.356
  20660508.862    20660508.862    20660508.862   108571706.869    84601330.027
  23490507.159    23490507.159    23490507.159   123443448.295    96189699.970
  21032270.715    21032270.715    21032270.715   110525328.592    86123632.669
  21932511.868    21932511.868    21932511.868   115256127.781    89809969.700
  23025461.111    23025461.111    23025461.111   120999614.819    94285414.144
  19749095.142    19749095.142    19749095.142   103782195.443    80869243.203
  24500516.883    24500516.883    24500516.883   128751085.218   100325520.949
 03  5 13 12 30  0.0000000  0 10  1  2  4  8 10 13 22 24 27 28      
  23669506.892    23669506.892    23669506.892   124384098.241    96922673.954
  24049287.965    24049287.965    24049287.965   126379861.250    98477813.961
  24183386.759    24183386.759    24183386.759   127084555.169    99026926.105
  20475513.490    20475513.490    20475513.490   107599549.627    83843804.904
  22945247.653    22945247.653    22945247.653   120578090.252    93956953.443
  21238859.248    21238859.248    21238859.248   111610958.660    86969578.177
  22008414.588    22008414.588    22008414.588   115654999.267    90120778.650
  23371091.611    23371091.611    23371091.611   122815915.355    95700713.264
  19815370.244    19815370.244    19815370.244   104130473.455    81140628.666
  23834893.698    23834893.698    23834893.698   125253211.773    97599905.277
 03  5 13 12 45  0.0000000  0  8  1  8 10 13 22 24 27 28            
  24141176.695    24141176.695    24141176.695   126862739.785    98854082.950
  20360931.452    20360931.452    20360931.452   106997416.953    83374610.613
  22450518.239    22450518.239    22450518.239   117978269.634    91931119.195
  21489139.101    21489139.101    21489139.101   112926188.165    87994432.336
  22168117.717    22168117.717    22168117.717   116494244.874    90774736.266
  23779624.640    23779624.640    23779624.640   124962770.912    97373587.724
  19959563.240    19959563.240    19959563.240   104888212.763    81731074.881
  23181183.171    23181183.171    23181183.171   121817939.767    94923069.948
 03  5 13 13  0  0.0000000  0  7  8 10 13 22 24 27 28               
  20313420.270    20313420.270    20313420.270   106747744.007    83180060.265
  22020503.244    22020503.244    22020503.244   115718525.583    90170279.675
  21784148.100    21784148.100    21784148.100   114476470.918    89202444.871
  22406798.973    22406798.973    22406798.973   117748523.340    91752096.109
  24234659.225    24234659.225    24234659.225   127353993.796    99236878.283
  20173439.035    20173439.035    20173439.035   106012137.652    82606860.508
  22554369.366    22554369.366    22554369.366   118524010.990    92356372.200
 03  5 13 13 15  0.0000000  0  8  8 10 13 22 27 28 29 31            
  20328227.243    20328227.243    20328227.243   106825555.175    83240692.344
  21668748.084    21668748.084    21668748.084   113870039.741    88729901.097
  22124401.784    22124401.784    22124401.784   116264516.096    90595726.828
  22717336.264    22717336.264    22717336.264   119380407.819    93023694.404
  20448007.374    20448007.374    20448007.374   107455004.012    83731171.957
  21969600.667    21969600.667    21969600.667   115451030.735    89961842.131
  23990443.392    23990443.392    23990443.392   126070630.932    98236855.271
  24848869.116    24848869.116    24848869.116   130581688.558   101751965.110
 03  5 13 13 30  0.0000000  0  8  8 10 13 22 27 28 29 31            
  20399634.476    20399634.476    20399634.476   107200802.717    83533093.026
  21407259.549    21407259.549    21407259.549   112495908.215    87659149.258
  22509664.417    22509664.417    22509664.417   118289084.897    92173312.907
  23090862.080    23090862.080    23090862.080   121343299.230    94553220.179
  20774138.843    20774138.843    20774138.843   109168836.449    85066625.804
  21441651.989    21441651.989    21441651.989   112676641.707    87799980.551
  23447283.248    23447283.248    23447283.248   123216305.110    96012705.280
  24703430.841    24703430.841    24703430.841   129817405.265   101156419.687
 03  5 13 13 45  0.0000000  0  8  8 10 13 22 27 28 29 31            
  20521433.217    20521433.217    20521433.217   107840859.421    84031838.510
  21245552.207    21245552.207    21245552.207   111646130.397    86996984.725
  22938759.422    22938759.422    22938759.422   120543994.368    93930385.222
  23517365.317    23517365.317    23517365.317   123584588.868    96299679.638
  21143073.320    21143073.320    21143073.320   111107600.211    86577350.814
  20984269.806    20984269.806    20984269.806   110273082.113    85927076.971
  22912608.646    22912608.646    22912608.646   120406571.112    93823302.165
  24628614.911    24628614.911    24628614.911   129424244.899   100850060.960
 03  5 13 14  0  0.0000000  0  9  8 10 13 22 26 27 28 29 31         
  20687366.830    20687366.830    20687366.830   108712846.443    84711308.917
  21189773.414    21189773.414    21189773.414   111353010.862    86768579.892
  23409438.099    23409438.099    23409438.099   123017427.510    95857735.722
  23986270.115    23986270.115    23986270.115   126048700.213    98219766.400
  24762830.294    24762830.294    24762830.294   130129551.497   101399650.517
  21546792.808    21546792.808    21546792.808   113229160.440    88230514.629
  20609441.318    20609441.318    20609441.318   108303345.114    84392216.972
  22394437.923    22394437.923    22394437.923   117683565.584    91701479.676
  24630370.095    24630370.095    24630370.095   129433468.453   100857248.145
 03  5 13 14 15  0.0000000  0  9  8 10 13 22 26 27 28 29 31         
  20891505.082    20891505.082    20891505.082   109785600.198    85547220.933
  21242046.728    21242046.728    21242046.728   111627708.981    86982630.375
  23918313.189    23918313.189    23918313.189   125691584.157    97941494.148
  24486948.705    24486948.705    24486948.705   128679783.962   100269961.529
  24201788.323    24201788.323    24201788.323   127181256.040    99102277.434
  21978255.077    21978255.077    21978255.077   115496509.967    89997280.494
  20326656.617    20326656.617    20326656.617   106817301.480    83234260.893
  21902178.638    21902178.638    21902178.638   115096725.582    89685760.194
  24711813.730    24711813.730    24711813.730   129861457.644   101190746.216
 03  5 13 14 30  0.0000000  0  8  8 10 13 26 27 28 29 31            
  21128541.516    21128541.516    21128541.516   111031235.066    86517845.506
  21400159.021    21400159.021    21400159.021   112458594.688    87630073.783
  24460859.815    24460859.815    24460859.815   128542685.920   100163131.885
  23637706.129    23637706.129    23637706.129   124216984.104    96792455.146
  22431500.839    22431500.839    22431500.839   117878332.522    91853246.121
  20142265.465    20142265.465    20142265.465   105848319.436    82479209.950
  21446467.911    21446467.911    21446467.911   112701949.548    87819700.946
  24873085.482    24873085.482    24873085.482   130708946.421   101851127.081
 03  5 13 14 45  0.0000000  0  7  7  8 10 26 27 28 29               
  24159122.495    24159122.495    24159122.495   126957045.601    98927568.001
  21393983.743    21393983.743    21393983.743   112426143.383    87604787.052
  21657651.005    21657651.005    21657651.005   113811724.197    88684460.413
  23078990.413    23078990.413    23078990.413   121280913.199    94504607.688
  22901656.095    22901656.095    22901656.095   120349015.068    93778453.300
  20059040.857    20059040.857    20059040.857   105410971.169    82138419.093
  21038871.552    21038871.552    21038871.552   110560016.224    86150661.993
 03  5 13 15  0  0.0000000  0  7  7  8 10 26 27 28 29               
  23555552.549    23555552.549    23555552.549   123785264.127    96456049.969
  21684252.384    21684252.384    21684252.384   113951515.387    88793388.614
  22004287.168    22004287.168    22004287.168   115633309.528    90103877.555
  22535639.162    22535639.162    22535639.162   118425583.103    92279675.145
  23384854.519    23384854.519    23384854.519   122888239.925    95757070.071
  20076041.295    20076041.295    20076041.295   105500309.074    82208033.044
  20691421.318    20691421.318    20691421.318   108734152.921    84727911.367
 03  5 13 15 15  0.0000000  0  7  7  8 10 26 27 28 29               
  22963825.293    22963825.293    22963825.293   120675716.409    94033025.773
  21996696.762    21996696.762    21996696.762   115593421.676    90072796.111
  22426807.051    22426807.051    22426807.051   117853666.500    91834025.844
  22019131.797    22019131.797    22019131.797   115711318.580    90164663.829
  23878100.260    23878100.260    23878100.260   125480263.788    97776828.926
  20188812.070    20188812.070    20188812.070   106092923.496    82669810.516
  20415986.543    20415986.543    20415986.543   107286733.409    83600052.007
 03  5 13 15 30  0.0000000  0  7  7  8 10 26 27 28 29               
  22400282.925    22400282.925    22400282.925   117714281.277    91725413.982
  22329525.523    22329525.523    22329525.523   117342448.620    91435674.249
  22909822.162    22909822.162    22909822.162   120391928.040    93811891.979
  21542185.142    21542185.142    21542185.142   113204946.992    88211647.007
  24379099.522    24379099.522    24379099.522   128113032.680    99828337.153
  20389896.930    20389896.930    20389896.930   107149631.568    83493219.403
  20223505.674    20223505.674    20223505.674   106275239.616    82811875.025
 03  5 13 15 45  0.0000000  0  7  7  8  9 10 26 28 29               
  21881658.874    21881658.874    21881658.874   114988893.494    89601735.190
  22681686.979    22681686.979    22681686.979   119193069.562    92877716.542
  24885846.137    24885846.137    24885846.137   130776004.115   101903379.830
  23436724.097    23436724.097    23436724.097   123160816.397    95969467.322
  21118342.344    21118342.344    21118342.344   110977638.055    86476081.601
  20669572.178    20669572.178    20669572.178   108619334.916    84638442.791
  20123142.101    20123142.101    20123142.101   105747825.480    82400902.971
 03  5 13 16  0  0.0000000  0  7  7  8  9 10 26 28 29               
  21424444.117    21424444.117    21424444.117   112586213.729    87729517.192
  23052698.721    23052698.721    23052698.721   121142749.425    94396947.604
  24447588.435    24447588.435    24447588.435   128472944.347   100108787.803
  23990505.497    23990505.497    23990505.497   126070957.296    98237109.581
  20761370.711    20761370.711    20761370.711   109101739.462    85014342.438
  21016683.200    21016683.200    21016683.200   110443415.648    86059804.401
  20121465.176    20121465.176    20121465.176   105739013.179    82394036.244
 03  5 13 16 15  0.0000000  0  6  7  8  9 26 28 29                  
  21044093.198    21044093.198    21044093.198   110587456.159    86172043.761
  23442447.626    23442447.626    23442447.626   123190893.745    95992904.217
  24006963.212    24006963.212    24006963.212   126157443.172    98304501.173
  20484470.561    20484470.561    20484470.561   107646619.353    83880482.613
  21419464.535    21419464.535    21419464.535   112560045.849    87709126.636
  20221780.198    20221780.198    20221780.198   106266172.178    82804809.489
 03  5 13 16 30  0.0000000  0  7  7  8  9 26 28 29 18               
  20754116.390    20754116.390    20754116.390   109063617.748    84984637.206
  23850973.867    23850973.867    23850973.867   125337713.631    97665750.881
  23565679.210    23565679.210    23565679.210   123838480.090    96497516.953
  20299338.176    20299338.176    20299338.176   106673742.103    83122396.444
  21866255.596    21866255.596    21866255.596   114907948.722    89538661.342
  20423721.342    20423721.342    20423721.342   107327380.052    83631724.716
  24671426.511    24671426.511    24671426.511   129649221.376   101025367.306
 03  5 13 16 45  0.0000000  0  7  7  8  9 26 28 29 18               
  20565152.485    20565152.485    20565152.485   108070605.725    84210861.604
  24278253.153    24278253.153    24278253.153   127583081.434    99415388.130
  23126469.347    23126469.347    23126469.347   121530416.681    94699025.985
  20215176.965    20215176.965    20215176.965   106231471.955    82777770.354
  22346062.535    22346062.535    22346062.535   117429351.204    91503390.549
  20723177.386    20723177.386    20723177.386   108901032.185    84857947.157
  24601892.830    24601892.830    24601892.830   129283819.416   100740638.506
 03  5 13 17  0  0.0000000  0  8  5  7  8  9 26 28 29 18            
  24323377.482    24323377.482    24323377.482   127820211.383    99600164.714
  20484158.347    20484158.347    20484158.347   107644978.657    83879204.149
  24723990.571    24723990.571    24723990.571   129925447.375   101240608.344
  22693228.567    22693228.567    22693228.567   119253721.016    92924977.415
  20237795.287    20237795.287    20237795.287   106350332.039    82870388.602
  22848952.721    22848952.721    22848952.721   120072056.969    93562641.794
  21112553.093    21112553.093    21112553.093   110947215.336    86452375.586
  24621025.852    24621025.852    24621025.852   129384364.125   100818985.032
 03  5 13 17 15  0.0000000  0  7  5  7  9 26 28 29 18               
  23856449.736    23856449.736    23856449.736   125366489.517    97688173.649
  20513864.436    20513864.436    20513864.436   107801085.209    84000845.617
  22271108.485    22271108.485    22271108.485   117035465.013    91196466.244
  20368945.081    20368945.081    20368945.081   107039528.858    83407425.084
  23366293.007    23366293.007    23366293.007   122790698.521    95681063.782
  21581302.939    21581302.939    21581302.939   113410512.402    88371827.846
  24724891.053    24724891.053    24724891.053   129930179.440   101244295.668
 03  5 13 17 30  0.0000000  0  6  5  7  9 26 28 29                  
  23414200.817    23414200.817    23414200.817   123042455.762    95877238.256
  20652611.222    20652611.222    20652611.222   108530204.490    84568990.512
  21866552.522    21866552.522    21866552.522   114909509.078    89539877.204
  20606027.331    20606027.331    20606027.331   108285404.491    84378237.266
  23890857.497    23890857.497    23890857.497   125547303.521    97829067.679
  22116632.385    22116632.385    22116632.385   116223687.629    90563912.438
 03  5 13 17 45  0.0000000  0  7  4  5  7  9 26 28 29               
  24546486.170    24546486.170    24546486.170   128992655.452   100513757.495
  22997972.966    22997972.966    22997972.966   120855163.642    94172854.786
  20894612.665    20894612.665    20894612.665   109801930.657    85559945.966
  21487254.418    21487254.418    21487254.418   112916284.089    87986714.874
  20942215.446    20942215.446    20942215.446   110052084.959    85754871.397
  24416830.691    24416830.691    24416830.691   128311311.311    99982839.983
  22704251.993    22704251.993    22704251.993   119311649.511    92970116.502
 03  5 13 18  0  0.0000000  0  6  4  5  7  9 26 29                  
  24107416.491    24107416.491    24107416.491   126685328.716    98715840.558
  22608661.130    22608661.130    22608661.130   118809316.135    92578687.897
  21230592.888    21230592.888    21230592.888   111567518.645    86935728.814
  21142016.550    21142016.550    21142016.550   111102046.847    86573023.517
  21366962.089    21366962.089    21366962.089   112284143.633    87494137.896
  23329092.028    23329092.028    23329092.028   122595206.057    95528731.992
 03  5 13 18 15  0.0000000  0  8  4  5  7  9 24 26 29 30            
  23701837.553    23701837.553    23701837.553   124553997.011    97055062.606
  22246879.746    22246879.746    22246879.746   116908142.130    91097253.608
  21648674.957    21648674.957    21648674.957   113764554.747    88647704.997
  20840490.129    20840490.129    20840490.129   109517514.810    85338323.229
  24760779.384    24760779.384    24760779.384   130118773.892   101391252.384
  21866777.911    21866777.911    21866777.911   114910693.506    89540800.134
  23975918.544    23975918.544    23975918.544   125994302.340    98177378.447
  24673681.302    24673681.302    24673681.302   129661070.382   101034600.298
 03  5 13 18 30  0.0000000  0  8  4  5  7  9 24 26 29 30            
  23344988.371    23344988.371    23344988.371   122678741.903    95593824.859
  21913149.468    21913149.468    21913149.468   115154377.682    89730683.908
  22135366.544    22135366.544    22135366.544   116322136.299    90640625.687
  20592782.118    20592782.118    20592782.118   108215800.427    84324000.332
  24202500.535    24202500.535    24202500.535   127184998.740    99105193.823
  22426139.225    22426139.225    22426139.225   117850157.050    91831291.208
  24629826.609    24629826.609    24629826.609   129430612.415   100855022.661
  24236272.551    24236272.551    24236272.551   127362471.881    99243484.583
 03  5 13 18 45  0.0000000  0  8  4  5  7  9 14 24 26 30            
  23051199.928    23051199.928    23051199.928   121134873.215    94390810.297
  21608090.575    21608090.575    21608090.575   113551282.380    88481518.737
  22676502.540    22676502.540    22676502.540   119165825.151    92856487.131
  20408928.582    20408928.582    20408928.582   107249643.574    83571150.837
  24530372.091    24530372.091    24530372.091   128907975.395   100447773.035
  23652833.967    23652833.967    23652833.967   124296481.429    96854401.113
  23028391.869    23028391.869    23028391.869   121015016.056    94297415.108
  23812477.407    23812477.407    23812477.407   125135413.368    97508114.313
 03  5 13 19  0  0.0000000  0  8  4  5  7  9 14 24 26 30            
  22833156.622    22833156.622    22833156.622   119989047.908    93497959.409
  21332605.371    21332605.371    21332605.371   112103597.862    87353452.879
  23258048.356    23258048.356    23258048.356   122221869.041    95237820.032
  20298256.030    20298256.030    20298256.030   106668055.388    83117965.237
  24147404.634    24147404.634    24147404.634   126895467.826    98879585.319
  23128414.015    23128414.015    23128414.015   121540635.981    94706989.076
  23656557.333    23656557.333    23656557.333   124316047.849    96869647.675
  23402558.463    23402558.463    23402558.463   122981274.778    95829564.762
 03  5 13 19 15  0.0000000  0  7  4  5  7  9 14 24 30               
  22701148.819    22701148.819    22701148.819   119295342.221    92957409.523
  21088049.990    21088049.990    21088049.990   110818450.660    86352039.476
  23866718.018    23866718.018    23866718.018   125420449.703    97730220.548
  20268680.275    20268680.275    20268680.275   106512633.746    82996857.465
  23846748.733    23846748.733    23846748.733   125315510.402    97648449.664
  22646287.508    22646287.508    22646287.508   119007044.086    92732761.625
  23006928.457    23006928.457    23006928.457   120902225.064    94209526.024
 03  5 13 19 30  0.0000000  0  7  4  5  6  9 14 24 30               
  22662408.361    22662408.361    22662408.361   119091759.740    92798773.824
  20876338.674    20876338.674    20876338.674   109705900.186    85485117.028
  24312213.973    24312213.973    24312213.973   127761546.748    99554452.011
  20326018.988    20326018.988    20326018.988   106813950.717    83231649.909
  23636762.747    23636762.747    23636762.747   124212026.598    96788592.154
  22223271.137    22223271.137    22223271.137   116784078.053    91000580.301
  22626359.613    22626359.613    22626359.613   118902322.291    92651160.227
 03  5 13 19 45  0.0000000  0  7  4  5  6  9 14 24 30               
  22720627.467    22720627.467    22720627.467   119397703.207    93037171.330
  20700021.809    20700021.809    20700021.809   108779348.806    84763128.940
  23725124.347    23725124.347    23725124.347   124676369.940    97150418.135
  20473410.665    20473410.665    20473410.665   107588499.207    83835194.187
  23522632.378    23522632.378    23522632.378   123612267.461    96321247.372
  21875150.871    21875150.871    21875150.871   114954693.707    89575086.006
  22262171.601    22262171.601    22262171.601   116988501.371    91159871.198
 03  5 13 20  0  0.0000000  0  7  4  5  6  9 14 24 30               
  22875744.153    22875744.153    22875744.153   120212846.894    93672348.229
  20562284.934    20562284.934    20562284.934   108055536.643    84199119.462
  23170224.736    23170224.736    23170224.736   121760352.802    94878196.989
  20710926.734    20710926.734    20710926.734   108836654.574    84807782.785
  23505884.615    23505884.615    23505884.615   123524257.372    96252668.082
  21615769.784    21615769.784    21615769.784   113591636.895    88512963.815
  21916400.784    21916400.784    21916400.784   115171463.463    89743997.504
 03  5 13 20 15  0.0000000  0  7  4  5  6  9 14 24 30               
  23124034.501    23124034.501    23124034.501   121517621.479    94689055.698
  20466862.330    20466862.330    20466862.330   107554087.475    83808379.850
  22654166.199    22654166.199    22654166.199   119048446.887    92765023.548
  21035435.871    21035435.871    21035435.871   110541961.599    86136593.454
  23584178.335    23584178.335    23584178.335   123935693.648    96573267.777
  21456096.712    21456096.712    21456096.712   112752549.239    87859129.277
  21591930.432    21591930.432    21591930.432   113466360.255    88415345.653
 03  5 13 20 30  0.0000000  0  7  4  5  6  9 14 24 30               
  23458496.041    23458496.041    23458496.041   123275228.735    96058619.793
  20417895.080    20417895.080    20417895.080   107296762.839    83607867.147
  22182600.070    22182600.070    22182600.070   116570350.153    90834039.080
  21440733.682    21440733.682    21440733.682   112671815.971    87796220.237
  23751409.558    23751409.558    23751409.558   124814499.656    97258051.680
  21403408.622    21403408.622    21403408.622   112475671.457    87643380.356
  21292568.532    21292568.532    21292568.532   111893202.853    87189508.716
