     2.10           OBSERVATION DATA    G (GPS)             RINEX VERSION / TYPE
SiGOGbcst v.1                           (14-MAY-18 14:41)   PGM / RUN BY / DATE 
SIMULATED RINEX from BROADCASTED ORBITS                     COMMENT             
vbca                                                        MARKER NAME         
elsa mohino         UCM                                     OBSERVER / AGENCY   
X124A123            XX                  ZZZ                 REC # / TYPE / VERS 
234                 YY                                      ANT # / TYPE        
  4177709.0000   856193.0000   726915.0000                  APPROX POSITION XYZ 
        1.0707        0.0000        0.0000                  ANTENNA: DELTA H/E/N
     1     1                                                WAVELENGTH FACT L1/2
     5    C1    P1    P2    L1    L2                        # / TYPES OF OBSERV 
   900.000                                                  INTERVAL            
  2003     5    13     0     0    0.0000000     GPS         TIME OF FIRST OBS   
                                                            END OF HEADER       
 03  5 13  0  0  0.0000000  0  0                                    
 03  5 13  0 15  0.0000000  0  0                                    
 03  5 13  0 30  0.0000000  0  0                                    
 03  5 13  0 45  0.0000000  0  0                                    
 03  5 13  1  0  0.0000000  0  0                                    
 03  5 13  1 15  0.0000000  0  0                                    
 03  5 13  1 30  0.0000000  0  0                                    
 03  5 13  1 45  0.0000000  0  0                                    
 03  5 13  2  0  0.0000000  0  0                                    
 03  5 13  2 15  0.0000000  0  0                                    
 03  5 13  2 30  0.0000000  0  0                                    
 03  5 13  2 45  0.0000000  0  0                                    
 03  5 13  3  0  0.0000000  0  0                                    
 03  5 13  3 15  0.0000000  0  0                                    
 03  5 13  3 30  0.0000000  0  0                                    
 03  5 13  3 45  0.0000000  0  0                                    
 03  5 13  4  0  0.0000000  0  0                                    
 03  5 13  4 15  0.0000000  0  0                                    
 03  5 13  4 30  0.0000000  0  0                                    
 03  5 13  4 45  0.0000000  0  0                                    
 03  5 13  5  0  0.0000000  0  0                                    
 03  5 13  5 15  0.0000000  0  0                                    
 03  5 13  5 30  0.0000000  0  0                                    
 03  5 13  5 45  0.0000000  0  0                                    
 03  5 13  6  0  0.0000000  0  0                                    
 03  5 13  6 15  0.0000000  0  0                                    
 03  5 13  6 30  0.0000000  0  0                                    
 03  5 13  6 45  0.0000000  0  0                                    
 03  5 13  7  0  0.0000000  0  0                                    
 03  5 13  7 15  0.0000000  0  0                                    
 03  5 13  7 30  0.0000000  0  0                                    
 03  5 13  7 45  0.0000000  0  0                                    
 03  5 13  8  0  0.0000000  0  0                                    
 03  5 13  8 15  0.0000000  0  0                                    
 03  5 13  8 30  0.0000000  0  0                                    
 03  5 13  8 45  0.0000000  0  0                                    
 03  5 13  9  0  0.0000000  0  0                                    
 03  5 13  9 15  0.0000000  0  0                                    
 03  5 13  9 30  0.0000000  0  0                                    
 03  5 13  9 45  0.0000000  0  0                                    
 03  5 13 10  0  0.0000000  0  0                                    
 03  5 13 10 15  0.0000000  0  0                                    
 03  5 13 10 30  0.0000000  0  0                                    
 03  5 13 10 45  0.0000000  0  0                                    
 03  5 13 11  0  0.0000000  0  0                                    
 03  5 13 11 15  0.0000000  0  0                                    
 03  5 13 11 30  0.0000000  0  0                                    
 03  5 13 11 45  0.0000000  0  0                                    
 03  5 13 12  0  0.0000000  0  0                                    
 03  5 13 12 15  0.0000000  0  0                                    
 03  5 13 12 30  0.0000000  0  0                                    
 03  5 13 12 45  0.0000000  0  0                                    
 03  5 13 13  0  0.0000000  0  0                                    
 03  5 13 13 15  0.0000000  0  0                                    
 03  5 13 13 30  0.0000000  0  0                                    
 03  5 13 13 45  0.0000000  0  0                                    
 03  5 13 14  0  0.0000000  0  0                                    
 03  5 13 14 15  0.0000000  0  0                                    
 03  5 13 14 30  0.0000000  0  0                                    
 03  5 13 14 45  0.0000000  0  0                                    
 03  5 13 15  0  0.0000000  0  0                                    
 03  5 13 15 15  0.0000000  0  0                                    
 03  5 13 15 30  0.0000000  0  0                                    
 03  5 13 15 45  0.0000000  0  0                                    
 03  5 13 16  0  0.0000000  0  0                                    
 03  5 13 16 15  0.0000000  0  0                                    
 03  5 13 16 30  0.0000000  0  0                                    
 03  5 13 16 45  0.0000000  0  0                                    
 03  5 13 17  0  0.0000000  0  0                                    
 03  5 13 17 15  0.0000000  0  0                                    
 03  5 13 17 30  0.0000000  0  0                                    
 03  5 13 17 45  0.0000000  0  0                                    
 03  5 13 18  0  0.0000000  0  0                                    
 03  5 13 18 15  0.0000000  0  0                                    
 03  5 13 18 30  0.0000000  0  0                                    
 03  5 13 18 45  0.0000000  0  0                                    
 03  5 13 19  0  0.0000000  0  0                                    
 03  5 13 19 15  0.0000000  0  0                                    
 03  5 13 19 30  0.0000000  0  0                                    
 03  5 13 19 45  0.0000000  0  0                                    
 03  5 13 20  0  0.0000000  0  0                                    
 03  5 13 20 15  0.0000000  0  0                                    
 03  5 13 20 30  0.0000000  0  0                                    
 03  5 13 20 45  0.0000000  0  0                                    
 03  5 13 21  0  0.0000000  0  0                                    
 03  5 13 21 15  0.0000000  0  0                                    
 03  5 13 21 30  0.0000000  0  0                                    
 03  5 13 21 45  0.0000000  0  0                                    
 03  5 13 22  0  0.0000000  0  0                                    
 03  5 13 22 15  0.0000000  0  0                                    
 03  5 13 22 30  0.0000000  0  0                                    
 03  5 13 22 45  0.0000000  0  0                                    
 03  5 13 23  0  0.0000000  0  0                                    
 03  5 13 23 15  0.0000000  0  0                                    
 03  5 13 23 30  0.0000000  0  0                                    
 03  5 13 23 45  0.0000000  0  0                                    
